#------------------------------------------------------------------------------
#
#   Created by   : las_export
#   Created on   : 2019-11-07 11:27:48
#   Project      : GUDRUN
#   User         : MAAP
#   Interpreters : STAT, AKOLB, *
#
#------------------------------------------------------------------------------
~VERSION INFORMATION
VERS. 2.0 : CWLS Log ASCII Standard - version 2.0
WRAP.  NO : One line per depth step

~WELL INFORMATION
#MNEMONIC   .UNIT                                           VALUE :DESCRIPTION
#------------------------------------------------------------------------------
STRT        .M                                      3853.73988 :START DEPTH
STOP        .M                                      3957.21948 :STOP DEPTH
STEP        .M                                          0.1524 :STEP
NULL        .                                        -999.2500 :NULL VALUE
COMP        .                                                  :COMPANY
WELL        .                                           Well11 :WELL  #15/3-11
FLD         .                                          UNKNOWN :FIELD
LOC         .                                          UNKNOWN :LOCATION
CNTY        .                                          UNKNOWN :COUNTY
STAT        .                                          UNKNOWN :STATE
CTRY        .                                           Norway :COUNTRY
SRVC        .                                          UNKNOWN :SERVICE COMPANY
DATE        .                                          UNKNOWN :LOG DATE
UWI         .                                       NO 15/3-11 :UNIQUE WELL ID
XCOORD      .M                                     4583.300000 :SURFACE X  # 434583.300000
YCOORD      .M                                    20591.500000 :SURFACE Y  # 6520591.500000
LAT         .                                        58.818915 :LATITUDE
LON         .                                         1.867338 :LONGITUDE
ELEV        .M                                         23.0000 :SURFACE ELEV
ELEV_TYPE   .                                               KB :ELEV TYPE

~CURVE INFORMATION
#MNEMONIC   .UNIT          API CODE       : CURVE DESCRIPTION
#------------------------------------------------------------------------------
DEPTH       .M                            : Measured Depth
DEN         .g/cm3         UNKNOWN        : DEN:COMPOSITE:r1:NONE:v1
DTST        .UNKNOWN       UNKNOWN        : DTST:WIRELINE:r1:0001:v1
GR          .UNKNOWN       UNKNOWN        : GR:WIRELINE:r1:0001:v1
LFP_AI      .kPa.s/m       UNKNOWN        : LFP_AI:GeologLFP:rC:NONE:v1
LFP_DT      .us/ft         UNKNOWN        : LFP_DT:GeologLFP:rC:NONE:v1
LFP_GR      .API           UNKNOWN        : LFP_GR:GeologLFP:rC:NONE:v1
LFP_NPHI    .v/v decimal   UNKNOWN        : LFP_NPHI:GeologLFP:rC:NONE:v1
LFP_PHIT    .v/v decimal   UNKNOWN        : LFP_PHIT:GeologLFP:rC:NONE:v1
LFP_RHOB    .g/cm3         UNKNOWN        : LFP_RHOB:GeologLFP:rC:NONE:v1
LFP_SI      .kPa.s/m       UNKNOWN        : LFP_SI:GeologLFP:rC:NONE:v1
LFP_VPVS    .unitless      UNKNOWN        : LFP_VPVS:GeologLFP:rC:NONE:v1
NPHI        .UNKNOWN       UNKNOWN        : NPHI:WIRELINE:r1:0001:v1
PHIT        .v/v decimal   UNKNOWN        : PHIT:CPI:r1:NONE:v1
~A     DEPTH          DEN         DTST           GR       LFP_AI       LFP_DT       LFP_GR     LFP_NPHI     LFP_PHIT     LFP_RHOB       LFP_SI     LFP_VPVS         NPHI         PHIT 
# ...
  3900.67908     2.621402   291.797301    64.979563  8239.284583    96.975230    81.050258     0.386396     0.026648     2.621409  4398.577069     1.873173     0.354207     0.045042 
  3900.83148     2.621539   291.853399    64.090812  8127.410676    98.315649    72.058650     0.358104     0.025418     2.621544  4300.841435     1.889735     0.340359     0.041555 
  3900.98388     2.598786   291.995243    68.912926  7854.531431   100.846640    70.672169     0.353909     0.039389     2.598762  4096.802118     1.917239     0.349185     0.054593 
  3901.13628     2.568837   292.140801    73.670231  7725.228752   101.352102    80.112006     0.371518     0.059220     2.568793  3984.712647     1.938719     0.361900     0.075895 
  3901.28868     2.560124   292.238052    76.902103  7730.438452   100.943680    86.264570     0.380859     0.065387     2.560166  4036.419098     1.915173     0.361804     0.082520 
  3901.44108     2.577584   292.317402    76.943240  7815.799259   100.518940    85.713940     0.374507     0.054551     2.577544  4064.813824     1.922811     0.347509     0.072227 
  3901.59348     2.603438   292.430728    76.855262  7923.351051   100.151742    83.890309     0.354988     0.038248     2.603464  4245.542597     1.866279     0.348947     0.056743 
  3901.74588     2.622696   292.460980    77.398013  8090.061543    98.813946    84.036426     0.370361     0.026324     2.622739  4375.688388     1.848866     0.355861     0.045373 
  3901.89828     2.622142   292.469519    76.263962  8112.752224    98.514643    87.214945     0.371700     0.027136     2.622126  4349.164872     1.865358     0.350026     0.045822 
  3902.05068     2.614024   292.247284    73.045348  7993.056647    99.681081    83.659113     0.361001     0.031712     2.614028  4285.282579     1.865251     0.338974     0.050399 
  3902.20308     2.603364   291.922720    71.240308  7879.067487   100.709308    82.973388     0.349733     0.038276     2.603330  4103.691884     1.920002     0.335182     0.056476 
  3902.35548     2.598385   291.659260    74.773734  7796.577358   101.582033    86.082636     0.350869     0.041761     2.598397  3987.791693     1.955117     0.347592     0.059878 
  3902.50788     2.596328   291.215953    80.445813  7882.235051   100.400827    93.646059     0.370832     0.044029     2.596375  4096.644531     1.924069     0.361424     0.061075 
  3902.66028     2.600366   290.594903    83.076977  8189.686664    96.778231    96.799490     0.380646     0.042017     2.600318  4240.949413     1.931096     0.379979     0.058740 
  3902.81268     2.609655   290.218950    81.174348  8486.735640    93.727614    90.615071     0.404934     0.035415     2.609672  4382.145523     1.936698     0.376545     0.053199 
  3902.96508     2.617603   290.029008    78.194970  8922.719366    89.418486    84.924231     0.383032     0.029750     2.617617  4757.286769     1.875628     0.338024     0.048478 
  3903.11748     2.646302   289.846244    75.067270  9282.220294    86.896477    78.100752     0.333445     0.011250     2.646290  5134.637968     1.807803     0.281584     0.029156 
  3903.26988     2.688778   289.502361    72.124129  9585.736403    85.495193    77.409840     0.271933     0.010000     2.688762  5518.261910     1.737116     0.249393     0.003824 
  3903.42228     2.727738   289.077521    69.755131  9596.488141    86.637822    74.059501     0.259141     0.010000     2.727727  5288.250087     1.814697     0.248381     0.001000 
  3903.57468     2.732865   288.828019    68.628885  9264.609023    89.911630    80.626505     0.265979     0.010000     2.732911  4995.214797     1.854698     0.260686     0.001000 
  3903.72708     2.699751   288.843851    70.039188  8941.409063    92.031270    86.635059     0.281776     0.010000     2.699764  4811.842066     1.858232     0.288641     0.001139 
  3903.87948     2.664686   288.966289    72.937497  9019.118134    90.055036    91.809431     0.318378     0.010069     2.664655  4634.703207     1.946011     0.324835     0.020636 
  3904.03188     2.634899   289.271307    75.749849  9643.310663    83.283370    88.197149     0.354566     0.019579     2.634910  4579.782543     2.105621     0.359913     0.038234 
  3904.18428     2.649331   289.566519    76.001051 10012.503168    80.651563    77.131856     0.388982     0.010000     2.649360  4655.198853     2.150821     0.361643     0.027098 
  3904.33668     2.724362   289.767000    71.291959 10112.468076    82.117359    73.682999     0.368798     0.010000     2.724336  4700.475896     2.151384     0.338082     0.001000 
  3904.48908     2.831124   290.088432    65.469281  9562.514329    90.241698    76.906659     0.343002     0.010000     2.831092  4761.318185     2.008381     0.320460     0.001000 
  3904.64148     2.875967   290.471202    63.394196  9092.002431    96.413503    84.513310     0.330821     0.010000     2.875947  4788.801988     1.898622     0.329621     0.001000 
  3904.79388     2.814694   290.726239    69.282282  8769.944932    97.826556    88.336385     0.354294     0.010000     2.814733  4483.654969     1.955989     0.362740     0.001000 
  3904.94628     2.715625   291.166595    77.547161  8374.328767    98.841812    89.339459     0.393754     0.010009     2.715654  4234.653348     1.977600     0.383697     0.001204 
  3905.09868     2.649146   291.947125    81.857091  8071.178852   100.040857    91.622779     0.402379     0.011359     2.649097  3958.075729     2.039171     0.383228     0.029850 
  3905.25108     2.627519   292.450584    82.150563  7855.122312   101.955061    94.191166     0.395825     0.025120     2.627509  3826.454966     2.052843     0.372483     0.042636 
  3905.40348     2.616204   292.560560    82.588531  7616.373625   104.699560    94.688188     0.382292     0.032198     2.616239  3772.100546     2.019135     0.369997     0.049310 
  3905.55588     2.616860   292.665012    84.229539  7504.852483   106.281193    94.336039     0.387309     0.031773     2.616877  3791.697626     1.979288     0.369674     0.048932 
  3905.70828     2.625328   292.763415    85.420691  7584.470004   105.504637    93.215681     0.383389     0.026404     2.625315  3765.834849     2.014024     0.380816     0.043934 
  3905.86068     2.629240   292.809447    85.863973  7670.710248   104.472854    92.462997     0.404592     0.023907     2.629203  3735.092762     2.053698     0.398196     0.041632 
  3906.01308     2.620834   292.955299    85.836992  7677.055183   104.056790    95.782204     0.419397     0.029553     2.620864  3839.302887     1.999665     0.412621     0.046570 
  3906.16548     2.611562   293.191172    86.405972  8000.319309    99.500360    96.924694     0.433619     0.035514     2.611539  4214.522508     1.898381     0.415831     0.052093 
  3906.31788     2.606277   293.387309    84.400376  8676.232603    91.571280    97.725855     0.429357     0.038915     2.606267  4830.103503     1.796243     0.420407     0.055216 
  3906.47028     2.602942   293.905751    74.802366  9928.610228    79.913939    91.970593     0.439790     0.040176     2.602989  5381.691291     1.844978     0.420976     0.057144 
  3906.62268     2.594685   294.362059    55.973105 10815.019982    73.126895    79.314668     0.433860     0.043599     2.594688  6161.398802     1.755375     0.356965     0.060242 
  3906.77508     2.564357   294.862307    36.386199 10353.974678    75.489489    57.246733     0.331034     0.059408     2.564319  6581.470990     1.573193     0.246583     0.070084 
  3906.92748     2.516108   295.379754    24.933966  9776.172518    78.445945    38.040864     0.215168     0.086684     2.516066  6456.090283     1.514266     0.154246     0.083243 
  3907.07988     2.461071   295.847730    22.692614  9385.701298    79.924608    28.240313     0.138381     0.117548     2.461116  6099.072442     1.538883     0.131386     0.109338 
  3907.23228     2.414856   296.117238    23.131125  9172.582505    80.243178    30.152623     0.151361     0.143110     2.414821  5836.384910     1.571622     0.144313     0.134206 
