#------------------------------------------------------------------------------
#
#   Created by   : las_export
#   Created on   : 2019-11-07 11:27:48
#   Project      : GUDRUN
#   User         : MAAP
#   Interpreters : STAT, AKOLB, *
#
#------------------------------------------------------------------------------
~VERSION INFORMATION
VERS. 2.0 : CWLS Log ASCII Standard - version 2.0
WRAP.  NO : One line per depth step

~WELL INFORMATION
#MNEMONIC   .UNIT                                           VALUE :DESCRIPTION
#------------------------------------------------------------------------------
STRT        .M                                      3853.73988 :START DEPTH
STOP        .M                                      3957.21948 :STOP DEPTH
STEP        .M                                          0.1524 :STEP
NULL        .                                        -999.2500 :NULL VALUE
COMP        .                                                  :COMPANY
WELL        .                                           Well11 :WELL  #15/3-11
FLD         .                                          UNKNOWN :FIELD
LOC         .                                          UNKNOWN :LOCATION
CNTY        .                                          UNKNOWN :COUNTY
STAT        .                                          UNKNOWN :STATE
CTRY        .                                           Norway :COUNTRY
SRVC        .                                          UNKNOWN :SERVICE COMPANY
DATE        .                                          UNKNOWN :LOG DATE
UWI         .                                       NO 15/3-11 :UNIQUE WELL ID
XCOORD      .M                                     4583.300000 :SURFACE X  # 434583.300000
YCOORD      .M                                    20591.500000 :SURFACE Y  # 6520591.500000
LAT         .                                        58.818915 :LATITUDE
LON         .                                         1.867338 :LONGITUDE
ELEV        .M                                         23.0000 :SURFACE ELEV
ELEV_TYPE   .                                               KB :ELEV TYPE

~CURVE INFORMATION
#MNEMONIC   .UNIT          API CODE       : CURVE DESCRIPTION
#------------------------------------------------------------------------------
DEPTH       .M                            : Measured Depth
DEN         .g/cm3         UNKNOWN        : DEN:COMPOSITE:r1:NONE:v1
DTST        .UNKNOWN       UNKNOWN        : DTST:WIRELINE:r1:0001:v1
GR          .UNKNOWN       UNKNOWN        : GR:WIRELINE:r1:0001:v1
LFP_AI      .kPa.s/m       UNKNOWN        : LFP_AI:GeologLFP:rC:NONE:v1
LFP_DT      .us/ft         UNKNOWN        : LFP_DT:GeologLFP:rC:NONE:v1
LFP_GR      .API           UNKNOWN        : LFP_GR:GeologLFP:rC:NONE:v1
LFP_NPHI    .v/v decimal   UNKNOWN        : LFP_NPHI:GeologLFP:rC:NONE:v1
LFP_PHIT    .v/v decimal   UNKNOWN        : LFP_PHIT:GeologLFP:rC:NONE:v1
LFP_RHOB    .g/cm3         UNKNOWN        : LFP_RHOB:GeologLFP:rC:NONE:v1
LFP_SI      .kPa.s/m       UNKNOWN        : LFP_SI:GeologLFP:rC:NONE:v1
LFP_VPVS    .unitless      UNKNOWN        : LFP_VPVS:GeologLFP:rC:NONE:v1
NPHI        .UNKNOWN       UNKNOWN        : NPHI:WIRELINE:r1:0001:v1
PHIT        .v/v decimal   UNKNOWN        : PHIT:CPI:r1:NONE:v1
~A     DEPTH          DEN         DTST           GR       LFP_AI       LFP_DT       LFP_GR     LFP_NPHI     LFP_PHIT     LFP_RHOB       LFP_SI     LFP_VPVS         NPHI         PHIT 
# ...
  3907.38468     2.380651   296.161506    21.914252  9135.651479    79.427930    33.724187     0.164254     0.161793     2.380662  5888.832108     1.551352     0.146241     0.152847 
  3907.53708     2.359802   296.031897    20.517219  9133.767710    78.747929    32.282589     0.158997     0.173669     2.359792  5872.651840     1.555314     0.137360     0.163239 
  3907.68948     2.346025   295.583298    20.644409  9214.104129    77.607189    31.021671     0.147666     0.182265     2.346039  5736.592754     1.606196     0.131423     0.169492 
  3907.84188     2.335462   295.063174    22.485591  9570.872070    74.378084    29.793761     0.145358     0.187740     2.335492  5783.975228     1.654720     0.134812     0.174814 
  3907.99428     2.330252   294.457450    22.972075  9876.378679    71.916000    29.208996     0.152482     0.189158     2.330265  5933.523584     1.664507     0.136546     0.178116 
  3908.14668     2.351749   294.002468    21.132762 10236.836669    70.023623    25.370109     0.150586     0.175390     2.351774  6169.846436     1.659183     0.128414     0.166890 
  3908.29908     2.386767   293.468240    19.298910 10365.783932    70.180438    21.269942     0.138256     0.153998     2.386727  6403.472293     1.618782     0.115474     0.147957 
  3908.45148     2.424292   293.054533    18.476009 10294.692367    71.776598    20.823481     0.124977     0.133436     2.424272  6534.379047     1.575467     0.111653     0.127495 
  3908.60388     2.451228   292.628063    17.995915 10434.284875    71.603550    21.462641     0.127549     0.119038     2.451220  6605.080090     1.579736     0.119655     0.113270 
  3908.75628     2.469177   292.401377    16.834556 10571.692614    71.191536    19.550237     0.139077     0.109478     2.469166  6624.166681     1.595923     0.127916     0.102795 
  3908.90868     2.479917   292.539696    15.622817 11130.450277    67.911625    17.236334     0.145229     0.102964     2.479943  6688.589204     1.664095     0.130278     0.096112 
  3909.06108     2.482328   292.691809    14.368530 11251.559522    67.245145    15.531329     0.145018     0.100870     2.482292  6734.713640     1.670680     0.126962     0.094254 
  3909.21348     2.486246   292.734476    13.730322 10779.248158    70.305372    13.840338     0.139603     0.101824     2.486291  6707.559765     1.607022     0.121305     0.091492 
  3909.36588     2.492611   292.644653    13.399724 10200.627659    74.482111    13.835241     0.133754     0.097886     2.492639  6454.354197     1.580422     0.122145     0.087997 
  3909.51828     2.494199   292.370798    13.427259  9831.877732    77.322680    13.952894     0.139054     0.096952     2.494171  6401.599630     1.535846     0.128874     0.087194 
  3909.67068     2.493839   292.075394    12.913089 10102.423213    75.243256    15.326250     0.146760     0.097341     2.493821  6425.086426     1.572333     0.139870     0.087846 
  3909.82308     2.471131   291.556069    11.847616 10732.377290    70.180281    14.815401     0.159977     0.107958     2.471089  6513.978720     1.647585     0.135238     0.100180 
  3909.97548     2.447574   291.058313    10.927908 11239.744105    66.377692    13.127381     0.143364     0.120443     2.447538  6686.398756     1.680953     0.110902     0.112584 
  3910.12788     2.444216   290.160517    10.418523 12479.644100    59.697446    13.671068     0.114011     0.121006     2.444209  6981.484333     1.787538     0.081169     0.114593 
  3910.28028     2.474829   288.820275    11.018622 13064.181329    57.740983    12.693009     0.083904     0.103158     2.474850  7339.271512     1.780035     0.061562     0.097408 
  3910.43268     2.535120   287.934674    12.799626 13640.158507    56.650315    12.911492     0.071317     0.071370     2.535170  7617.492046     1.790638     0.055877     0.064277 
  3910.58508     2.594220   287.130267    16.290180 13854.076429    57.075533    11.627924     0.070330     0.034671     2.594248  7787.321738     1.779059     0.052481     0.031311 
  3910.73748     2.653130   286.036330    19.471806 13709.875898    58.984327    13.259874     0.065230     0.010000     2.653108  7896.996751     1.736086     0.049663     0.001000 
  3910.88988     2.685353   285.299530    21.202029 13936.287457    58.731582    16.696859     0.063924     0.010000     2.685359  7997.745748     1.742528     0.044048     0.001000 
  3911.04228     2.692631   284.715270    21.806853 13637.895111    60.179429    20.868268     0.055585     0.010000     2.692650  8019.049831     1.700689     0.036247     0.001000 
  3911.19468     2.682880   284.362010    24.135727 13769.766402    59.387581    24.064219     0.048064     0.010000     2.682917  7933.074179     1.735742     0.028359     0.001000 
  3911.34708     2.666010   284.254773    29.720011 13745.398017    59.118398    25.569633     0.039118     0.010000     2.666026  7968.734174     1.724916     0.022295     0.001011 
  3911.49948     2.653365   284.488871    35.776029 13525.904094    59.791572    33.703971     0.032421     0.010000     2.653317  7851.110087     1.722799     0.021541     0.002630 
  3911.65188     2.648484   284.918803    40.022805 13156.874081    61.356982    38.657479     0.035325     0.010000     2.648457  7748.526820     1.697976     0.027753     0.005323 
  3911.80428     2.646241   285.470244    41.915195 12459.753746    64.737630    47.844411     0.046237     0.010021     2.646234  7485.777263     1.664481     0.050970     0.007373 
  3911.95668     2.637893   286.383359    43.818138 11403.214776    70.521573    49.998864     0.078882     0.013037     2.637919  6718.392505     1.697257     0.106700     0.014339 
  3912.10908     2.622951   287.036591    47.390314  9748.231056    82.014889    59.202068     0.149985     0.023701     2.622910  6005.626075     1.623292     0.181874     0.027896 
  3912.26148     2.616250   287.598397    54.025050  8979.705732    88.803738    70.577107     0.227885     0.029524     2.616224  5176.577169     1.734741     0.252935     0.041321 
  3912.41388     2.637359   288.380956    65.238623  8720.567459    92.179196    82.139113     0.294584     0.018174     2.637319  4743.581009     1.838411     0.303088     0.035442 
  3912.56628     2.659634   288.993865    75.954707  8783.701318    92.290719    92.131899     0.334125     0.010000     2.659625  4588.242971     1.914393     0.331302     0.023614 
  3912.71868     2.664308   289.703745    83.794077  8871.579211    91.536392    95.260282     0.354809     0.010016     2.664278  4629.175309     1.916455     0.346575     0.020858 
  3912.87108     2.651389   290.436688    86.492846  8924.728403    90.552343   101.579465     0.366576     0.012306     2.651421  4545.596342     1.963383     0.342831     0.028473 
  3913.02348     2.649959   290.628949    86.833363  8759.933147    92.203359   104.102452     0.352418     0.013704     2.649917  4421.502807     1.981212     0.332495     0.029364 
  3913.17588     2.672299   290.567042    86.896919  8691.794390    93.709525   103.896327     0.344628     0.010000     2.672256  4430.499615     1.961814     0.331882     0.016144 
  3913.32828     2.700111   290.575024    84.873713  8656.419544    95.072116    95.534358     0.348844     0.010000     2.700078  4498.849509     1.924142     0.344186     0.001000 
  3913.48068     2.701416   290.607253    83.674695  8740.021682    94.208180    90.281557     0.366495     0.010000     2.701368  4571.860558     1.911700     0.357147     0.001093 
  3913.63308     2.675473   290.725253    83.091845  8950.419585    91.112722    86.317570     0.376402     0.010035     2.675516  4689.377962     1.908659     0.364169     0.014203 
  3913.78548     2.643758   290.914458    83.417593  8906.282223    90.477010    86.842924     0.381453     0.015001     2.643745  4717.409097     1.887964     0.359439     0.033019 
  3913.93788     2.638028   291.200481    83.326621  8959.821908    89.741508    88.099211     0.370214     0.018780     2.638003  4648.199137     1.927588     0.350193     0.036419 
