#------------------------------------------------------------------------------
#
#   Created by   : las_export
#   Created on   : 2019-11-07 11:27:48
#   Project      : GUDRUN
#   User         : MAAP
#   Interpreters : STAT, AKOLB, *
#
#------------------------------------------------------------------------------
~VERSION INFORMATION
VERS. 2.0 : CWLS Log ASCII Standard - version 2.0
WRAP.  NO : One line per depth step

~WELL INFORMATION
#MNEMONIC   .UNIT                                           VALUE :DESCRIPTION
#------------------------------------------------------------------------------
STRT        .M                                      3853.73988 :START DEPTH
STOP        .M                                      3957.21948 :STOP DEPTH
STEP        .M                                          0.1524 :STEP
NULL        .                                        -999.2500 :NULL VALUE
COMP        .                                                  :COMPANY
WELL        .                                           Well11 :WELL  #15/3-11
FLD         .                                          UNKNOWN :FIELD
LOC         .                                          UNKNOWN :LOCATION
CNTY        .                                          UNKNOWN :COUNTY
STAT        .                                          UNKNOWN :STATE
CTRY        .                                           Norway :COUNTRY
SRVC        .                                          UNKNOWN :SERVICE COMPANY
DATE        .                                          UNKNOWN :LOG DATE
UWI         .                                       NO 15/3-11 :UNIQUE WELL ID
XCOORD      .M                                     4583.300000 :SURFACE X  # 434583.300000
YCOORD      .M                                    20591.500000 :SURFACE Y  # 6520591.500000
LAT         .                                        58.818915 :LATITUDE
LON         .                                         1.867338 :LONGITUDE
ELEV        .M                                         23.0000 :SURFACE ELEV
ELEV_TYPE   .                                               KB :ELEV TYPE

~CURVE INFORMATION
#MNEMONIC   .UNIT          API CODE       : CURVE DESCRIPTION
#------------------------------------------------------------------------------
DEPTH       .M                            : Measured Depth
DEN         .g/cm3         UNKNOWN        : DEN:COMPOSITE:r1:NONE:v1
DTST        .UNKNOWN       UNKNOWN        : DTST:WIRELINE:r1:0001:v1
GR          .UNKNOWN       UNKNOWN        : GR:WIRELINE:r1:0001:v1
LFP_AI      .kPa.s/m       UNKNOWN        : LFP_AI:GeologLFP:rC:NONE:v1
LFP_DT      .us/ft         UNKNOWN        : LFP_DT:GeologLFP:rC:NONE:v1
LFP_GR      .API           UNKNOWN        : LFP_GR:GeologLFP:rC:NONE:v1
LFP_NPHI    .v/v decimal   UNKNOWN        : LFP_NPHI:GeologLFP:rC:NONE:v1
LFP_PHIT    .v/v decimal   UNKNOWN        : LFP_PHIT:GeologLFP:rC:NONE:v1
LFP_RHOB    .g/cm3         UNKNOWN        : LFP_RHOB:GeologLFP:rC:NONE:v1
LFP_SI      .kPa.s/m       UNKNOWN        : LFP_SI:GeologLFP:rC:NONE:v1
LFP_VPVS    .unitless      UNKNOWN        : LFP_VPVS:GeologLFP:rC:NONE:v1
NPHI        .UNKNOWN       UNKNOWN        : NPHI:WIRELINE:r1:0001:v1
PHIT        .v/v decimal   UNKNOWN        : PHIT:CPI:r1:NONE:v1
~A     DEPTH          DEN         DTST           GR       LFP_AI       LFP_DT       LFP_GR     LFP_NPHI     LFP_PHIT     LFP_RHOB       LFP_SI     LFP_VPVS         NPHI         PHIT 
# ...
  3880.56228     2.609059   287.812909    32.263416 13141.076029    60.515912    28.796674     0.046873     0.027177     2.609047  7276.926720     1.805849     0.039482     0.026429 
  3880.71468     2.659417   286.960644    37.231353 13738.061066    59.002948    31.365232     0.059343     0.010000     2.659401  7494.667865     1.833052     0.051884     0.001890 
  3880.86708     2.689720   286.279557    40.995028 13657.910672    60.027474    35.220339     0.071597     0.010000     2.689744  7660.777536     1.782834     0.064614     0.001000 
  3881.01948     2.692477   285.800249    42.918589 12968.141047    63.285321    34.172686     0.084608     0.010000     2.692500  7639.060713     1.697601     0.081755     0.001000 
  3881.17188     2.689241   285.557235    44.848655 12235.454703    66.992987    34.633151     0.104577     0.010000     2.689268  7498.928880     1.631626     0.105059     0.001000 
  3881.32428     2.695028   285.691446    48.446239 12142.312751    67.651403    37.210161     0.130123     0.010000     2.695021  7486.034510     1.621998     0.128958     0.001000 
  3881.47668     2.698872   286.368413    54.407620 11922.849039    68.998412    41.800385     0.152924     0.010000     2.698905  7291.055550     1.635259     0.152885     0.001000 
  3881.62908     2.694831   287.058749    62.416637 11065.990622    74.231566    49.496824     0.177588     0.010000     2.694873  7130.819903     1.551838     0.195898     0.001049 
  3881.78148     2.670952   287.918987    69.139301 10054.095028    80.974788    61.787775     0.232882     0.010035     2.670909  6607.203122     1.521761     0.255675     0.008137 
  3881.93388     2.636004   288.825009    72.694026  9233.156804    87.017916    75.040027     0.295950     0.015077     2.635969  5758.445066     1.603464     0.311852     0.034116 
  3882.08628     2.594549   289.427792    73.659504  8844.521130    89.415124    83.612395     0.347845     0.041637     2.594595  5241.849678     1.687339     0.334588     0.061885 
  3882.23868     2.573525   290.072045    73.985885  8948.628655    87.658338    89.816654     0.351135     0.055342     2.573553  4945.658987     1.809391     0.332803     0.074600 
  3882.39108     2.577202   290.582262    74.855624  9164.298003    85.717754    88.775613     0.345941     0.052965     2.577241  4942.651902     1.854126     0.333302     0.072415 
  3882.54348     2.591540   290.827730    74.191120  9198.003188    85.876165    90.851497     0.350300     0.044344     2.591500  4936.919889     1.863110     0.333577     0.063969 
  3882.69588     2.611321   290.985727    74.143897  9234.551703    86.190865    89.226486     0.347820     0.031890     2.611329  5041.462870     1.831720     0.330141     0.052224 
  3882.84828     2.642574   291.070484    74.879799  9418.891651    85.515439    88.501494     0.343740     0.012652     2.642584  5140.004688     1.832466     0.321301     0.033712 
  3883.00068     2.694964   290.871479    74.797824  9667.692697    84.965285    84.133974     0.331754     0.010000     2.694935  5162.453662     1.872692     0.321601     0.002759 
  3883.15308     2.717878   290.575887    75.076187  9900.928542    83.670505    78.527414     0.340317     0.010000     2.717899  5185.277639     1.909431     0.336755     0.001000 
  3883.30548     2.714628   290.433106    76.551322  9859.723257    83.920194    80.017532     0.359737     0.010000     2.714661  5141.063314     1.917836     0.344885     0.001030 
  3883.45788     2.690675   290.266364    78.737944  9673.308076    84.782903    86.829147     0.360350     0.010000     2.690719  5058.828096     1.912164     0.342557     0.005215 
  3883.61028     2.701138   290.092539    78.608234  9717.079273    84.726541    90.041655     0.356180     0.010000     2.701097  5078.078503     1.913535     0.336226     0.001000 
  3883.76268     2.706330   289.999944    77.143607  9780.057750    84.343586    91.459016     0.348310     0.010000     2.706316  5051.171649     1.936197     0.340151     0.001005 
  3883.91508     2.696236   289.924479    77.859755  9785.098352    83.986776    93.354947     0.360073     0.010000     2.696251  5011.380739     1.952574     0.347624     0.001924 
  3884.06748     2.659455   289.953902    80.664960  9552.819298    84.854600    92.293780     0.364741     0.010000     2.659451  4969.043873     1.922544     0.336001     0.023720 
  3884.21988     2.667230   290.307298    82.709748  9594.322027    84.736627    83.650950     0.342180     0.010000     2.667276  5368.808382     1.787061     0.290997     0.018854 
  3884.37228     2.670859   290.770099    79.503923  9886.090543    82.346574    63.485342     0.281824     0.010196     2.670850  5640.823033     1.752601     0.230431     0.008813 
  3884.52468     2.594493   291.038265    67.966035 10199.136449    77.536647    46.111206     0.220754     0.038014     2.594511  5864.606396     1.739127     0.175199     0.043275 
  3884.67708     2.481141   291.371098    51.282966 10186.110969    74.242778    36.303593     0.169564     0.107211     2.481126  6143.890364     1.657924     0.145114     0.101736 
  3884.82948     2.388948   291.693740    36.659931  9989.400301    72.893651    31.927551     0.153573     0.143603     2.388967  6072.392799     1.645055     0.132261     0.148667 
  3884.98188     2.381687   292.205097    27.461632  9622.031449    75.446466    30.714780     0.142742     0.146583     2.381713  6107.157542     1.575535     0.126473     0.151688 
  3885.13428     2.379868   292.779009    22.670952  9429.217990    76.929814    25.607001     0.140265     0.148179     2.379882  6146.266963     1.534138     0.122380     0.152375 
  3885.28668     2.389548   293.103045    19.423666  9426.342767    77.264563    22.362222     0.135142     0.141969     2.389507  6171.125295     1.527491     0.119345     0.147042 
  3885.43908     2.410359   293.557039    17.627900  9575.607801    76.723708    19.950950     0.133459     0.129989     2.410341  6225.586970     1.538103     0.111120     0.135240 
  3885.59148     2.432626   293.769391    16.200857  9898.394794    74.906898    17.631315     0.120966     0.117550     2.432601  6376.152753     1.552417     0.099149     0.122271 
  3885.74388     2.436070   293.754658    15.079579 10051.631685    73.868667    16.827700     0.109300     0.115140     2.436022  6601.140148     1.522711     0.091599     0.120132 
  3885.89628     2.417726   293.834334    14.773547  9872.942446    74.640534    14.962203     0.104563     0.123959     2.417719  6492.769681     1.520606     0.091541     0.129598 
  3886.04868     2.393276   293.909978    15.193842  9675.104309    75.396679    15.722957     0.107507     0.136129     2.393276  6364.940568     1.520061     0.097753     0.143206 
  3886.20108     2.375795   294.116026    14.689467  9580.887040    75.580892    15.945339     0.115934     0.145357     2.375759  6318.353788     1.516357     0.105642     0.152952 
  3886.35348     2.360928   294.345058    13.379220  9440.347945    76.227427    17.192456     0.123524     0.152734     2.360927  6277.943270     1.503734     0.111912     0.161238 
  3886.50588     2.336665   294.943143    11.734899  9166.754650    77.696119    17.123504     0.128816     0.165310     2.336676  6078.330492     1.508103     0.113701     0.174283 
  3886.65828     2.303666   295.547520    10.984979  8894.095178    78.947336    16.915116     0.128252     0.182507     2.303691  5948.608407     1.495163     0.113819     0.191471 
  3886.81068     2.285024   295.805048    11.196151  8840.486130    78.782214    14.836935     0.128889     0.191906     2.285008  5775.387370     1.530720     0.116632     0.201291 
  3886.96308     2.302606   296.107326    11.945497  9082.930296    77.271069    14.667533     0.133115     0.182572     2.302651  5739.915945     1.582422     0.121433     0.192353 
  3887.11548     2.345499   296.333936    12.630908  9195.363445    77.747316    15.125454     0.138322     0.160225     2.345520  5929.498370     1.550791     0.126381     0.169365 
