#------------------------------------------------------------------------------
#
#   Created by   : las_export
#   Created on   : 2019-11-07 11:27:48
#   Project      : GUDRUN
#   User         : MAAP
#   Interpreters : STAT, AKOLB, *
#
#------------------------------------------------------------------------------
~VERSION INFORMATION
VERS. 2.0 : CWLS Log ASCII Standard - version 2.0
WRAP.  NO : One line per depth step

~WELL INFORMATION
#MNEMONIC   .UNIT                                           VALUE :DESCRIPTION
#------------------------------------------------------------------------------
STRT        .M                                      3853.73988 :START DEPTH
STOP        .M                                      3957.21948 :STOP DEPTH
STEP        .M                                          0.1524 :STEP
NULL        .                                        -999.2500 :NULL VALUE
COMP        .                                                  :COMPANY
WELL        .                                           Well11 :WELL  #15/3-11
FLD         .                                          UNKNOWN :FIELD
LOC         .                                          UNKNOWN :LOCATION
CNTY        .                                          UNKNOWN :COUNTY
STAT        .                                          UNKNOWN :STATE
CTRY        .                                           Norway :COUNTRY
SRVC        .                                          UNKNOWN :SERVICE COMPANY
DATE        .                                          UNKNOWN :LOG DATE
UWI         .                                       NO 15/3-11 :UNIQUE WELL ID
XCOORD      .M                                     4583.300000 :SURFACE X  # 434583.300000
YCOORD      .M                                    20591.500000 :SURFACE Y  # 6520591.500000
LAT         .                                        58.818915 :LATITUDE
LON         .                                         1.867338 :LONGITUDE
ELEV        .M                                         23.0000 :SURFACE ELEV
ELEV_TYPE   .                                               KB :ELEV TYPE

~CURVE INFORMATION
#MNEMONIC   .UNIT          API CODE       : CURVE DESCRIPTION
#------------------------------------------------------------------------------
DEPTH       .M                            : Measured Depth
DEN         .g/cm3         UNKNOWN        : DEN:COMPOSITE:r1:NONE:v1
DTST        .UNKNOWN       UNKNOWN        : DTST:WIRELINE:r1:0001:v1
GR          .UNKNOWN       UNKNOWN        : GR:WIRELINE:r1:0001:v1
LFP_AI      .kPa.s/m       UNKNOWN        : LFP_AI:GeologLFP:rC:NONE:v1
LFP_DT      .us/ft         UNKNOWN        : LFP_DT:GeologLFP:rC:NONE:v1
LFP_GR      .API           UNKNOWN        : LFP_GR:GeologLFP:rC:NONE:v1
LFP_NPHI    .v/v decimal   UNKNOWN        : LFP_NPHI:GeologLFP:rC:NONE:v1
LFP_PHIT    .v/v decimal   UNKNOWN        : LFP_PHIT:GeologLFP:rC:NONE:v1
LFP_RHOB    .g/cm3         UNKNOWN        : LFP_RHOB:GeologLFP:rC:NONE:v1
LFP_SI      .kPa.s/m       UNKNOWN        : LFP_SI:GeologLFP:rC:NONE:v1
LFP_VPVS    .unitless      UNKNOWN        : LFP_VPVS:GeologLFP:rC:NONE:v1
NPHI        .UNKNOWN       UNKNOWN        : NPHI:WIRELINE:r1:0001:v1
PHIT        .v/v decimal   UNKNOWN        : PHIT:CPI:r1:NONE:v1
~A     DEPTH          DEN         DTST           GR       LFP_AI       LFP_DT       LFP_GR     LFP_NPHI     LFP_PHIT     LFP_RHOB       LFP_SI     LFP_VPVS         NPHI         PHIT 
# ...
  3893.97348     2.622570   289.885022    75.474970  9748.936169    81.993646    84.871997     0.312075     0.025711     2.622541  5052.206738     1.929639     0.299331     0.045015 
  3894.12588     2.618344   289.788568    75.440235  9668.205179    82.545860    84.574168     0.316252     0.028312     2.618320  5043.837218     1.916832     0.303918     0.047661 
  3894.27828     2.610448   289.715376    77.071004  9338.037357    85.208388    86.088771     0.321125     0.033367     2.610492  4994.939698     1.869499     0.306557     0.052342 
  3894.43068     2.603163   289.696632    78.659867  9190.525844    86.333675    84.788448     0.322349     0.037762     2.603185  4914.863434     1.869950     0.300161     0.056452 
  3894.58308     2.598115   289.785033    77.061355  9052.955644    87.474444    82.363860     0.310790     0.040642     2.598102  4779.707329     1.894041     0.294433     0.058336 
  3894.73548     2.614614   290.127526    74.084853  9196.027506    86.659872    79.435021     0.308979     0.030192     2.614579  4749.238875     1.936312     0.299395     0.048487 
  3894.88788     2.672750   290.550894    71.261025  9538.451482    85.405982    80.781080     0.318505     0.010000     2.672707  4824.460530     1.977103     0.313721     0.014618 
  3895.04028     2.721644   291.108622    72.264771  9692.355793    85.591111    85.200452     0.336053     0.010000     2.721680  4912.225042     1.973102     0.331915     0.001000 
  3895.19268     2.713379   291.501727    73.980544  9258.834636    89.327486    86.026137     0.354599     0.010000     2.713378  4806.847713     1.926159     0.349214     0.001177 
  3895.34508     2.654115   291.659264    75.214640  8505.310240    95.116376    82.419750     0.371034     0.010270     2.654135  4506.441656     1.887356     0.366288     0.026164 
  3895.49748     2.586061   291.975415    75.781394  7973.384028    98.859725    81.594497     0.388531     0.048107     2.586075  4314.348865     1.848100     0.379410     0.066198 
  3895.64988     2.552629   292.382777    76.476592  7574.972160   102.711123    84.222206     0.398837     0.069217     2.552594  4208.812764     1.799794     0.380829     0.086984 
  3895.80228     2.542827   292.701579    78.419911  7376.559456   105.071628    89.420218     0.394271     0.075900     2.542870  4052.528142     1.820260     0.370206     0.092766 
  3895.95468     2.560827   292.852355    79.898318  7473.263273   104.444705    88.974354     0.379632     0.064724     2.560822  3908.409751     1.912094     0.356111     0.082134 
  3896.10708     2.592680   292.959269    80.223206  7738.900227   102.114254    92.269909     0.365813     0.045389     2.592659  3956.779802     1.955857     0.342770     0.063278 
  3896.25948     2.618004   293.091582    78.539902  8103.861791    98.466541    96.721009     0.352829     0.030246     2.617972  3964.685309     2.044012     0.338299     0.048286 
  3896.41188     2.632496   292.992668    76.476102  8252.528476    97.230171    99.339375     0.354072     0.021560     2.632520  4040.145167     2.042634     0.338117     0.039669 
  3896.56428     2.631893   292.845112    75.820289  8434.430470    95.111572    94.829196     0.352835     0.021393     2.631927  4150.739008     2.032047     0.340625     0.040021 
  3896.71668     2.630947   292.537620    75.459106  8528.431309    94.028161    89.856356     0.357983     0.021409     2.630943  4314.908197     1.976507     0.344446     0.040603 
  3896.86908     2.637621   291.908202    75.732316  8664.870394    92.783741    87.055539     0.360905     0.016940     2.637651  4426.902125     1.957320     0.351343     0.036630 
  3897.02148     2.654727   291.334505    76.819816  8901.923175    90.900424    92.188343     0.370421     0.010000     2.654754  4508.038045     1.974669     0.357399     0.026501 
  3897.17388     2.686806   290.688180    74.911844  9498.318810    86.222901    93.061727     0.374077     0.010000     2.686777  4563.850641     2.081175     0.311950     0.007728 
  3897.32628     2.743882   289.926880    66.457298 10464.870115    79.924584    86.764999     0.295886     0.010000     2.743918  4866.092940     2.150680     0.229304     0.001000 
  3897.47868     2.797645   288.988538    50.638462 11631.491289    73.315476    66.158267     0.209800     0.010000     2.797648  5659.178507     2.055336     0.155092     0.001000 
  3897.63108     2.845989   288.380812    35.039707 12786.096207    67.844836    42.429931     0.143400     0.010000     2.846013  6243.067436     2.048198     0.139189     0.001000 
  3897.78348     2.858276   288.045649    25.680102 13205.312651    65.975721    28.977742     0.161154     0.010000     2.858310  7026.730926     1.879288     0.182812     0.001000 
  3897.93588     2.840488   287.814753    26.087259 12481.719095    69.372517    26.450040     0.222031     0.010000     2.840528  6908.946503     1.806566     0.244692     0.001000 
  3898.08828     2.782452   287.682087    38.287662 10892.489426    77.865793    35.534269     0.284547     0.010000     2.782430  6708.393491     1.623799     0.303571     0.001000 
  3898.24068     2.719612   287.640152    56.489553  9671.473748    85.712102    53.064102     0.341417     0.010000     2.719589  5674.096515     1.704634     0.344242     0.001000 
  3898.39308     2.693339   287.930782    71.405410  8945.717418    91.768311    71.214515     0.371576     0.010000     2.693327  4861.900790     1.839960     0.365311     0.001000 
  3898.54548     2.698856   288.502536    74.419131  9280.738201    88.639388    83.018374     0.386627     0.010000     2.698839  4904.139630     1.892410     0.351587     0.001000 
  3898.69788     2.706476   288.970018    67.611270 10017.405073    82.351228    85.098317     0.353535     0.010000     2.706490  5147.059652     1.946256     0.289495     0.001014 
  3898.85028     2.688868   289.574790    58.574041 10349.101766    79.194275    76.207728     0.271684     0.010000     2.688887  5436.209241     1.903724     0.228951     0.003117 
  3899.00268     2.656283   290.101307    56.180342  9731.913988    83.198276    68.228976     0.225126     0.010080     2.656245  5288.506996     1.840175     0.221998     0.018857 
  3899.15508     2.625918   290.283265    63.069314  8771.424187    91.250679    62.413221     0.244593     0.021339     2.625906  4891.910811     1.793052     0.281872     0.035268 
  3899.30748     2.614502   290.420103    72.303701  8223.435630    96.906063    73.113550     0.331934     0.029785     2.614503  4555.890343     1.805030     0.337523     0.046145 
  3899.45988     2.614794   290.531804    75.432506  8162.163782    97.643187    83.672405     0.366630     0.030981     2.614763  4371.435361     1.867164     0.355817     0.049948 
  3899.61228     2.613965   290.755056    75.147997  8159.750591    97.642116    92.342177     0.373961     0.032600     2.613960  4286.340106     1.903664     0.343368     0.050661 
  3899.76468     2.609116   291.014666    76.132144  8104.335600    98.128059    91.899260     0.348353     0.035559     2.609130  4277.247641     1.894774     0.338666     0.053522 
  3899.91708     2.611347   291.289754    79.519479  8081.574419    98.488545    93.492705     0.357642     0.034397     2.611360  4116.813699     1.963068     0.348545     0.052201 
  3900.06948     2.617923   291.424124    79.637909  8111.011221    98.378029    93.664925     0.367898     0.030361     2.617931  4083.208036     1.986438     0.355248     0.048309 
  3900.22188     2.621044   291.427965    77.164133  8111.558219    98.489587    98.826348     0.372306     0.029090     2.621076  4179.620513     1.940756     0.362439     0.046446 
  3900.37428     2.613206   291.550450    73.502889  8140.848668    97.840771    97.827114     0.381366     0.033861     2.613211  4333.008616     1.878801     0.368216     0.051105 
  3900.52668     2.614053   291.725701    68.675084  8189.520947    97.288970    93.507750     0.384830     0.032830     2.614009  4412.512137     1.855977     0.370492     0.050623 
