#------------------------------------------------------------------------------
#
#   Created by   : las_export
#   Created on   : 2019-11-07 11:27:48
#   Project      : GUDRUN
#   User         : MAAP
#   Interpreters : STAT, AKOLB, *
#
#------------------------------------------------------------------------------
~VERSION INFORMATION
VERS. 2.0 : CWLS Log ASCII Standard - version 2.0
WRAP.  NO : One line per depth step

~WELL INFORMATION
#MNEMONIC   .UNIT                                           VALUE :DESCRIPTION
#------------------------------------------------------------------------------
STRT        .M                                      3853.73988 :START DEPTH
STOP        .M                                      3957.21948 :STOP DEPTH
STEP        .M                                          0.1524 :STEP
NULL        .                                        -999.2500 :NULL VALUE
COMP        .                                                  :COMPANY
WELL        .                                           Well11 :WELL  #15/3-11
FLD         .                                          UNKNOWN :FIELD
LOC         .                                          UNKNOWN :LOCATION
CNTY        .                                          UNKNOWN :COUNTY
STAT        .                                          UNKNOWN :STATE
CTRY        .                                           Norway :COUNTRY
SRVC        .                                          UNKNOWN :SERVICE COMPANY
DATE        .                                          UNKNOWN :LOG DATE
UWI         .                                       NO 15/3-11 :UNIQUE WELL ID
XCOORD      .M                                     4583.300000 :SURFACE X  # 434583.300000
YCOORD      .M                                    20591.500000 :SURFACE Y  # 6520591.500000
LAT         .                                        58.818915 :LATITUDE
LON         .                                         1.867338 :LONGITUDE
ELEV        .M                                         23.0000 :SURFACE ELEV
ELEV_TYPE   .                                               KB :ELEV TYPE

~CURVE INFORMATION
#MNEMONIC   .UNIT          API CODE       : CURVE DESCRIPTION
#------------------------------------------------------------------------------
DEPTH       .M                            : Measured Depth
DEN         .g/cm3         UNKNOWN        : DEN:COMPOSITE:r1:NONE:v1
DTST        .UNKNOWN       UNKNOWN        : DTST:WIRELINE:r1:0001:v1
GR          .UNKNOWN       UNKNOWN        : GR:WIRELINE:r1:0001:v1
LFP_AI      .kPa.s/m       UNKNOWN        : LFP_AI:GeologLFP:rC:NONE:v1
LFP_DT      .us/ft         UNKNOWN        : LFP_DT:GeologLFP:rC:NONE:v1
LFP_GR      .API           UNKNOWN        : LFP_GR:GeologLFP:rC:NONE:v1
LFP_NPHI    .v/v decimal   UNKNOWN        : LFP_NPHI:GeologLFP:rC:NONE:v1
LFP_PHIT    .v/v decimal   UNKNOWN        : LFP_PHIT:GeologLFP:rC:NONE:v1
LFP_RHOB    .g/cm3         UNKNOWN        : LFP_RHOB:GeologLFP:rC:NONE:v1
LFP_SI      .kPa.s/m       UNKNOWN        : LFP_SI:GeologLFP:rC:NONE:v1
LFP_VPVS    .unitless      UNKNOWN        : LFP_VPVS:GeologLFP:rC:NONE:v1
NPHI        .UNKNOWN       UNKNOWN        : NPHI:WIRELINE:r1:0001:v1
PHIT        .v/v decimal   UNKNOWN        : PHIT:CPI:r1:NONE:v1
~A     DEPTH          DEN         DTST           GR       LFP_AI       LFP_DT       LFP_GR     LFP_NPHI     LFP_PHIT     LFP_RHOB       LFP_SI     LFP_VPVS         NPHI         PHIT 
# ...
  3873.85668     1.790922   328.611550    47.955122  4556.392178   119.859256    47.718613     0.607378     0.010000     1.790892  1986.332408     2.294617     0.527488     0.000100 
  3874.00908     2.088921   326.891455    48.328311  6395.086343    99.615978    54.130163     0.499538     0.010000     2.088919  3052.771831     2.096127     0.390329     0.000100 
  3874.16148     2.302201   324.819319    41.657682  8831.185622    79.459122    57.030729     0.342803     0.010904     2.302169  4910.706485     1.798806     0.244759     0.001142 
  3874.31388     2.400347   316.337466    30.852413  9587.706041    76.308173    51.592494     0.204354     0.137078     2.400329  6174.212207     1.552866     0.163838     0.146658 
  3874.46628     2.420650   306.725462    24.126265  9680.951518    76.211500    37.885694     0.161536     0.124891     2.420601  6305.420400     1.535342     0.139560     0.133016 
  3874.61868     2.385807   297.831310    22.992410  9497.182646    76.570696    25.972686     0.149541     0.141883     2.385846  6108.521963     1.554753     0.133573     0.150140 
  3874.77108     2.401133   292.049592    24.681944  9535.918971    76.748837    22.057620     0.147591     0.133890     2.401145  5938.070787     1.605897     0.129556     0.140960 
  3874.92348     2.448035   290.784048    29.251598  9822.105135    75.967104    25.130079     0.142177     0.110153     2.448006  5908.478669     1.662369     0.123049     0.116240 
  3875.07588     2.509243   290.722331    37.095909 10265.288718    74.503902    29.013737     0.134983     0.088935     2.509200  6073.856088     1.690079     0.130558     0.084000 
  3875.22828     2.571431   290.600597    46.508833 10268.829665    76.326730    32.847474     0.152268     0.050633     2.571478  6126.522383     1.676131     0.169335     0.051241 
  3875.38068     2.603710   290.586071    51.287568 10388.175914    76.396217    38.196120     0.205489     0.031110     2.603729  6069.041634     1.711734     0.204480     0.035523 
  3875.53308     2.604870   290.711632    47.657250 10273.259130    77.285928    50.399544     0.228530     0.031495     2.604915  6505.685468     1.579131     0.201241     0.043224 
  3875.68548     2.572465   291.417100    38.698954 10115.488784    77.514345    58.501719     0.207781     0.052373     2.572489  6662.521334     1.518267     0.162278     0.064067 
  3875.83788     2.525282   292.245722    30.113407 10139.815702    75.911217    61.199721     0.156630     0.081797     2.525325  6621.783131     1.531275     0.129187     0.078503 
  3875.99028     2.466530   293.216271    24.934778  9656.257841    77.856558    51.359600     0.135589     0.102441     2.466538  6449.591660     1.497206     0.127286     0.107244 
  3876.14268     2.414479   294.271854    22.400949  9329.715968    78.880865    41.085585     0.146423     0.128776     2.414461  6069.998050     1.537020     0.140314     0.135055 
  3876.29508     2.369251   294.782638    20.641992  8869.775864    81.417356    32.894982     0.160917     0.151576     2.369269  5787.891461     1.532504     0.157365     0.159575 
  3876.44748     2.320373   294.899373    20.826856  8645.587968    81.803472    28.159417     0.179705     0.176241     2.320339  5398.158971     1.601591     0.167104     0.186373 
  3876.59988     2.302824   294.908510    23.510879  8621.566443    81.411670    28.696315     0.183428     0.185394     2.302781  5228.092827     1.649079     0.167652     0.195773 
  3876.75228     2.320626   294.613326    26.142585  9023.957093    78.385049    24.482336     0.181850     0.176076     2.320640  5304.597485     1.701149     0.160412     0.185853 
  3876.90468     2.380638   294.263778    28.826150  9613.366862    75.479710    24.439558     0.170755     0.145069     2.380624  5576.022945     1.724085     0.147142     0.152956 
  3877.05708     2.442114   293.783302    32.820507  9868.725988    75.424455    23.479154     0.156024     0.113277     2.442072  5945.854566     1.659790     0.138531     0.118960 
  3877.20948     2.486126   293.391470    37.904669 10032.873610    75.530137    31.078191     0.151518     0.103483     2.486156  6275.801288     1.598669     0.143163     0.097291 
  3877.36188     2.503610   293.077477    40.531005  9813.890233    77.755923    34.790150     0.162256     0.093029     2.503570  6406.635286     1.531833     0.152638     0.089000 
  3877.51428     2.490876   292.693555    38.744433  9808.195480    77.407553    38.629311     0.171004     0.101154     2.490898  6343.718637     1.546145     0.158293     0.097169 
  3877.66668     2.459360   291.986614    35.938090  9971.712770    75.173534    43.054225     0.174504     0.106283     2.459339  6140.372810     1.623959     0.157256     0.113898 
  3877.81908     2.439844   291.439156    35.860025  9728.211721    76.444548    44.123399     0.170408     0.116816     2.439849  5986.486841     1.625028     0.150613     0.123643 
  3877.97148     2.446226   290.662003    38.777440  9972.967223    74.762453    43.653643     0.162104     0.113903     2.446181  5987.936187     1.665504     0.137516     0.119716 
  3878.12388     2.477985   289.894005    41.582269 10428.932893    72.423788    39.966829     0.145801     0.109401     2.478027  6153.079196     1.694917     0.124952     0.101988 
  3878.27628     2.503930   289.656559    45.854014 10602.689370    71.982129    41.595953     0.135775     0.093475     2.503947  6326.876178     1.675818     0.117810     0.087814 
  3878.42868     2.522211   289.260257    48.491639 10813.692803    71.093218    43.173868     0.130564     0.082277     2.522245  6452.506048     1.675894     0.119324     0.077953 
  3878.58108     2.537808   288.975870    49.314755 10821.337904    71.482107    45.329901     0.136466     0.072815     2.537835  6566.578451     1.647943     0.122917     0.070380 
  3878.73348     2.552890   288.917297    46.907735 10851.172158    71.707296    47.175084     0.138593     0.063683     2.552848  6648.162447     1.632207     0.125504     0.062816 
  3878.88588     2.551408   288.861268    43.895919 10767.294315    72.226218    50.028813     0.141418     0.064835     2.551447  6677.391897     1.612500     0.126085     0.063762 
  3879.03828     2.538450   288.761613    42.248483 10710.060368    72.242024    51.935204     0.140555     0.073101     2.538439  6655.419228     1.609224     0.123821     0.070403 
  3879.19068     2.531381   289.059412    41.067560 10636.942814    72.536456    52.112842     0.137331     0.077505     2.531385  6630.005828     1.604364     0.127100     0.073785 
  3879.34308     2.528552   289.425297    39.670501 10566.141638    72.940081    52.399796     0.144925     0.079318     2.528525  6609.980595     1.598512     0.142098     0.075853 
  3879.49548     2.507624   289.648094    35.721872 10387.006423    73.585426    49.504651     0.165012     0.091903     2.507648  6547.616773     1.586379     0.156777     0.088207 
  3879.64788     2.468805   289.856113    30.226420 10123.272207    74.333300    46.817811     0.176016     0.101967     2.468820  6410.531490     1.579164     0.153114     0.109107 
  3879.80028     2.441658   290.009348    24.956691 10042.456204    74.105818    42.481097     0.162514     0.115153     2.441612  6311.855629     1.591047     0.125059     0.122181 
  3879.95268     2.449922   289.987732    23.067892 10236.262323    72.949396    39.989087     0.124803     0.110701     2.449882  6333.674000     1.616162     0.088811     0.115037 
  3880.10508     2.481141   289.748906    23.731886 10642.819117    71.058022    36.234752     0.089519     0.107187     2.481131  6386.837353     1.666361     0.060471     0.096112 
  3880.25748     2.515089   289.006095    25.309392 11177.266252    68.585623    31.398635     0.065784     0.085670     2.515041  6549.908800     1.706470     0.041145     0.076637 
  3880.40988     2.555779   288.347216    28.272332 11888.493175    65.529369    26.534598     0.049489     0.059913     2.555778  6897.589893     1.723541     0.033043     0.054201 
