#------------------------------------------------------------------------------
#
#   Created by   : las_export
#   Created on   : 2019-11-07 11:27:48
#   Project      : GUDRUN
#   User         : MAAP
#   Interpreters : STAT, AKOLB, *
#
#------------------------------------------------------------------------------
~VERSION INFORMATION
VERS. 2.0 : CWLS Log ASCII Standard - version 2.0
WRAP.  NO : One line per depth step

~WELL INFORMATION
#MNEMONIC   .UNIT                                           VALUE :DESCRIPTION
#------------------------------------------------------------------------------
STRT        .M                                      3853.73988 :START DEPTH
STOP        .M                                      3957.21948 :STOP DEPTH
STEP        .M                                          0.1524 :STEP
NULL        .                                        -999.2500 :NULL VALUE
COMP        .                                                  :COMPANY
WELL        .                                           Well11 :WELL  #15/3-11
FLD         .                                          UNKNOWN :FIELD
LOC         .                                          UNKNOWN :LOCATION
CNTY        .                                          UNKNOWN :COUNTY
STAT        .                                          UNKNOWN :STATE
CTRY        .                                           Norway :COUNTRY
SRVC        .                                          UNKNOWN :SERVICE COMPANY
DATE        .                                          UNKNOWN :LOG DATE
UWI         .                                       NO 15/3-11 :UNIQUE WELL ID
XCOORD      .M                                     4583.300000 :SURFACE X  # 434583.300000
YCOORD      .M                                    20591.500000 :SURFACE Y  # 6520591.500000
LAT         .                                        58.818915 :LATITUDE
LON         .                                         1.867338 :LONGITUDE
ELEV        .M                                         23.0000 :SURFACE ELEV
ELEV_TYPE   .                                               KB :ELEV TYPE

~CURVE INFORMATION
#MNEMONIC   .UNIT          API CODE       : CURVE DESCRIPTION
#------------------------------------------------------------------------------
DEPTH       .M                            : Measured Depth
DEN         .g/cm3         UNKNOWN        : DEN:COMPOSITE:r1:NONE:v1
DTST        .UNKNOWN       UNKNOWN        : DTST:WIRELINE:r1:0001:v1
GR          .UNKNOWN       UNKNOWN        : GR:WIRELINE:r1:0001:v1
LFP_AI      .kPa.s/m       UNKNOWN        : LFP_AI:GeologLFP:rC:NONE:v1
LFP_DT      .us/ft         UNKNOWN        : LFP_DT:GeologLFP:rC:NONE:v1
LFP_GR      .API           UNKNOWN        : LFP_GR:GeologLFP:rC:NONE:v1
LFP_NPHI    .v/v decimal   UNKNOWN        : LFP_NPHI:GeologLFP:rC:NONE:v1
LFP_PHIT    .v/v decimal   UNKNOWN        : LFP_PHIT:GeologLFP:rC:NONE:v1
LFP_RHOB    .g/cm3         UNKNOWN        : LFP_RHOB:GeologLFP:rC:NONE:v1
LFP_SI      .kPa.s/m       UNKNOWN        : LFP_SI:GeologLFP:rC:NONE:v1
LFP_VPVS    .unitless      UNKNOWN        : LFP_VPVS:GeologLFP:rC:NONE:v1
NPHI        .UNKNOWN       UNKNOWN        : NPHI:WIRELINE:r1:0001:v1
PHIT        .v/v decimal   UNKNOWN        : PHIT:CPI:r1:NONE:v1
~A     DEPTH          DEN         DTST           GR       LFP_AI       LFP_DT       LFP_GR     LFP_NPHI     LFP_PHIT     LFP_RHOB       LFP_SI     LFP_VPVS         NPHI         PHIT 
# ...
  3934.20708     2.687307   284.949520    35.218075 14889.553818    55.012490    34.409655     0.042564     0.010000     2.687355  7504.754880     1.984022     0.021564     0.001000 
  3934.35948     2.702288   284.769702    25.279986 14465.978035    56.939468    36.608127     0.027528     0.010000     2.702329  7575.084668     1.909699     0.016233     0.001000 
  3934.51188     2.714611   284.644418    19.325104 13772.879169    60.075300    46.182389     0.024982     0.010000     2.714585  7736.569781     1.780244     0.021312     0.001000 
  3934.66428     2.715941   284.590258    19.597132 13414.739043    61.710529    54.024946     0.038979     0.010000     2.715981  7912.614223     1.695362     0.053489     0.001000 
  3934.81668     2.693602   284.554231    28.439342 13381.061009    61.356410    57.569995     0.087229     0.010000     2.693609  7952.653825     1.682598     0.126860     0.001000 
  3934.96908     2.679948   284.514185    42.503447 13582.239565    60.140484    45.272372     0.178016     0.010000     2.679918  7798.815786     1.741581     0.180520     0.001000 
  3935.12148     2.686962   284.230537    51.129147 13946.102991    58.725833    30.677715     0.206884     0.010000     2.686965  7725.234899     1.805260     0.168112     0.001000 
  3935.27388     2.723673   283.861155    46.253839 14621.046833    56.778985    17.992573     0.166995     0.010000     2.723631  7818.956155     1.869949     0.094874     0.001000 
  3935.42628     2.747854   283.730957    32.855794 15150.534585    55.281778    14.713279     0.071386     0.010000     2.747863  7833.659082     1.934031     0.031170     0.001000 
  3935.57868     2.755361   283.739506    20.370987 15196.207718    55.266181    13.923008     0.022972     0.010000     2.755364  7797.507458     1.948861     0.011787     0.001000 
  3935.73108     2.749929   283.752862    13.966963 15431.444698    54.316467    14.617823     0.017646     0.010000     2.749939  7686.062444     2.007718     0.009899     0.001000 
  3935.88348     2.753976   283.760457    11.691583 15547.575484    53.990634    13.746373     0.016903     0.010000     2.754007  7651.180522     2.032051     0.009805     0.001000 
  3936.03588     2.764646   283.768843    11.345982 15272.071440    55.177562    16.521968     0.017257     0.010000     2.764673  7687.829816     1.986524     0.010507     0.001000 
  3936.18828     2.771055   283.961869    12.006699 14936.344306    56.550024    20.702531     0.018443     0.010000     2.771095  7661.721472     1.949465     0.011516     0.001000 
  3936.34068     2.764603   284.557815    13.337771 14063.230566    59.920629    30.219597     0.019840     0.010000     2.764622  7410.643568     1.897696     0.013938     0.001000 
  3936.49308     2.750918   285.050397    16.652513 13214.771078    63.453507    46.509789     0.024528     0.010000     2.750886  7126.525669     1.854279     0.019745     0.001000 
  3936.64548     2.739326   285.372168    23.593118 11989.099492    69.647096    62.075203     0.035738     0.010000     2.739371  6777.859998     1.768842     0.041773     0.001000 
  3936.79788     2.728901   285.590195    34.830668 10967.621167    75.839097    68.736961     0.069388     0.010000     2.728891  6348.938223     1.727498     0.097923     0.001000 
  3936.95028     2.714936   285.673555    47.556148 11363.370613    72.827798    59.291878     0.141652     0.010000     2.714981  6159.720355     1.844789     0.176382     0.001000 
  3937.10268     2.706026   285.738314    53.286074 12364.320684    66.709991    43.480895     0.224290     0.010000     2.705992  6153.698969     2.009226     0.233325     0.001000 
  3937.25508     2.709827   285.854965    48.149013 13392.981785    61.670634    33.438218     0.264058     0.010000     2.709808  6361.391585     2.105390     0.221665     0.001000 
  3937.40748     2.727604   286.087025    36.498749 13809.394280    60.204339    27.458730     0.217994     0.010000     2.727621  6798.001055     2.031429     0.156274     0.001000 
  3937.55988     2.742071   286.174303    27.711069 13390.177740    62.419435    29.044879     0.139818     0.010000     2.742100  7067.499386     1.894611     0.092446     0.001000 
  3937.71228     2.737858   286.134010    25.516327 12723.896427    65.584392    32.062259     0.085517     0.010000     2.737825  7054.978433     1.803537     0.069561     0.001000 
  3937.86468     2.717878   286.109733    28.556967 12612.172310    65.684632    37.872839     0.083720     0.010000     2.717923  6916.598060     1.823481     0.078694     0.001000 
  3938.01708     2.700913   286.144924    33.006736 12292.314139    66.971963    44.256314     0.100019     0.010000     2.700914  6571.600097     1.870527     0.092889     0.001000 
  3938.16948     2.702722   286.472037    37.232132 12071.032111    68.246281    49.484673     0.112834     0.010000     2.702749  6356.976566     1.898866     0.106293     0.001000 
  3938.32188     2.705827   287.161739    41.847623 11719.357773    70.374468    58.586229     0.126656     0.010000     2.705832  6138.866593     1.909053     0.120333     0.001000 
  3938.47428     2.709543   287.601499    48.527275 11350.149196    72.764511    66.281711     0.140768     0.010000     2.709512  5853.038642     1.939174     0.140408     0.001000 
  3938.62668     2.701522   288.020398    58.003457 10564.153307    77.944825    71.277595     0.164967     0.010000     2.701475  5574.069384     1.895232     0.171663     0.001000 
  3938.77908     2.690470   288.453055    64.560251 10088.830131    81.283324    73.638080     0.200938     0.010000     2.690453  5316.279233     1.897728     0.211243     0.001075 
  3938.93148     2.672158   288.742495    67.896840  9795.025291    83.153420    73.560258     0.242893     0.010006     2.672202  5130.107226     1.909321     0.247717     0.011668 
  3939.08388     2.652272   289.019986    66.594407  9543.934348    84.705059    77.963722     0.275585     0.010868     2.652295  5019.876614     1.901230     0.265298     0.025533 
  3939.23628     2.648486   289.185149    66.505294  9506.368483    84.916225    77.267865     0.283071     0.013174     2.648441  4980.035990     1.908897     0.279971     0.027553 
  3939.38868     2.660634   289.193301    67.527584  9525.008521    85.140394    76.256928     0.303015     0.010000     2.660638  5026.133180     1.895099     0.290649     0.019919 
  3939.54108     2.679325   289.163873    68.596051  9644.426178    84.676937    73.564147     0.307819     0.010000     2.679332  5120.985376     1.883315     0.297939     0.007756 
  3939.69348     2.668678   289.158302    68.440406  9614.246069    84.603660    69.548149     0.316696     0.010000     2.668636  5154.498143     1.865216     0.288668     0.012544 
  3939.84588     2.651504   289.103060    65.131199  9642.762836    83.811771    69.834564     0.295222     0.010058     2.651490  5223.148969     1.846159     0.268803     0.022867 
  3939.99828     2.638167   288.945437    61.336758  9835.157429    81.759765    69.207988     0.276043     0.018066     2.638181  5309.072511     1.852518     0.239258     0.030547 
  3940.15068     2.647626   288.839564    58.022620 10058.617085    80.229596    70.769804     0.239496     0.012516     2.647626  5331.276058     1.886725     0.217941     0.024904 
  3940.30308     2.651178   288.821807    56.526875  9874.302665    81.836163    74.147756     0.228238     0.010972     2.651162  5415.982368     1.823178     0.209345     0.021962 
  3940.45548     2.648111   288.809227    60.996962  9749.064916    82.791446    76.409305     0.221519     0.013316     2.648092  5359.553296     1.819013     0.231202     0.023030 
  3940.60788     2.649634   288.843292    67.880422  9870.612527    81.818836    83.651013     0.262459     0.013759     2.649603  5274.275633     1.871463     0.261424     0.025887 
  3940.76028     2.654433   288.997600    73.973016 10103.882653    80.075085    81.352003     0.285547     0.010365     2.654425  5282.588560     1.912680     0.279889     0.025250 
