#------------------------------------------------------------------------------
#
#   Created by   : las_export
#   Created on   : 2019-11-07 11:27:48
#   Project      : GUDRUN
#   User         : MAAP
#   Interpreters : STAT, AKOLB, *
#
#------------------------------------------------------------------------------
~VERSION INFORMATION
VERS. 2.0 : CWLS Log ASCII Standard - version 2.0
WRAP.  NO : One line per depth step

~WELL INFORMATION
#MNEMONIC   .UNIT                                           VALUE :DESCRIPTION
#------------------------------------------------------------------------------
STRT        .M                                      3853.73988 :START DEPTH
STOP        .M                                      3957.21948 :STOP DEPTH
STEP        .M                                          0.1524 :STEP
NULL        .                                        -999.2500 :NULL VALUE
COMP        .                                                  :COMPANY
WELL        .                                           Well11 :WELL  #15/3-11
FLD         .                                          UNKNOWN :FIELD
LOC         .                                          UNKNOWN :LOCATION
CNTY        .                                          UNKNOWN :COUNTY
STAT        .                                          UNKNOWN :STATE
CTRY        .                                           Norway :COUNTRY
SRVC        .                                          UNKNOWN :SERVICE COMPANY
DATE        .                                          UNKNOWN :LOG DATE
UWI         .                                       NO 15/3-11 :UNIQUE WELL ID
XCOORD      .M                                     4583.300000 :SURFACE X  # 434583.300000
YCOORD      .M                                    20591.500000 :SURFACE Y  # 6520591.500000
LAT         .                                        58.818915 :LATITUDE
LON         .                                         1.867338 :LONGITUDE
ELEV        .M                                         23.0000 :SURFACE ELEV
ELEV_TYPE   .                                               KB :ELEV TYPE

~CURVE INFORMATION
#MNEMONIC   .UNIT          API CODE       : CURVE DESCRIPTION
#------------------------------------------------------------------------------
DEPTH       .M                            : Measured Depth
DEN         .g/cm3         UNKNOWN        : DEN:COMPOSITE:r1:NONE:v1
DTST        .UNKNOWN       UNKNOWN        : DTST:WIRELINE:r1:0001:v1
GR          .UNKNOWN       UNKNOWN        : GR:WIRELINE:r1:0001:v1
LFP_AI      .kPa.s/m       UNKNOWN        : LFP_AI:GeologLFP:rC:NONE:v1
LFP_DT      .us/ft         UNKNOWN        : LFP_DT:GeologLFP:rC:NONE:v1
LFP_GR      .API           UNKNOWN        : LFP_GR:GeologLFP:rC:NONE:v1
LFP_NPHI    .v/v decimal   UNKNOWN        : LFP_NPHI:GeologLFP:rC:NONE:v1
LFP_PHIT    .v/v decimal   UNKNOWN        : LFP_PHIT:GeologLFP:rC:NONE:v1
LFP_RHOB    .g/cm3         UNKNOWN        : LFP_RHOB:GeologLFP:rC:NONE:v1
LFP_SI      .kPa.s/m       UNKNOWN        : LFP_SI:GeologLFP:rC:NONE:v1
LFP_VPVS    .unitless      UNKNOWN        : LFP_VPVS:GeologLFP:rC:NONE:v1
NPHI        .UNKNOWN       UNKNOWN        : NPHI:WIRELINE:r1:0001:v1
PHIT        .v/v decimal   UNKNOWN        : PHIT:CPI:r1:NONE:v1
~A     DEPTH          DEN         DTST           GR       LFP_AI       LFP_DT       LFP_GR     LFP_NPHI     LFP_PHIT     LFP_RHOB       LFP_SI     LFP_VPVS         NPHI         PHIT 
# ...
  3860.44548     2.420622   299.394105    75.064585  6710.285326   109.950395    58.695170     0.405128     0.130386     2.420595  3506.379985     1.913765     0.424338     0.156707 
  3860.59788     2.395613   301.068830    79.426644  6562.726003   111.260391    68.136340     0.462590     0.160314     2.395571  3306.884534     1.984564     0.444912     0.174789 
  3860.75028     2.383362   301.908410    76.770773  6438.581869   112.827435    78.649055     0.458502     0.168375     2.383359  3253.154055     1.979182     0.446868     0.185472 
  3860.90268     2.377927   302.104155    72.299005  6509.921778   111.334924    84.303493     0.464563     0.172052     2.377886  3271.600675     1.989826     0.472092     0.189062 
  3861.05508     2.353671   302.290856    70.130514  6346.531603   113.035839    86.988982     0.502602     0.187269     2.353625  3232.453522     1.963385     0.500701     0.000100 
  3861.20748     2.335629   302.305094    70.262585  6246.969846   113.959617    85.287016     0.524907     0.198405     2.335628  3276.052279     1.906857     0.500614     0.000100 
  3861.35988     2.339985   301.465488    70.958571  6401.517278   111.417446    84.166624     0.509831     0.195669     2.340017  3307.448164     1.935485     0.472827     0.001438 
  3861.51228     2.380158   300.818848    71.288737  6641.495564   109.234381    81.364438     0.473637     0.170663     2.380155  3433.443465     1.934351     0.461831     0.188246 
  3861.66468     2.430512   300.003690    73.261960  6995.083011   105.906399    79.083758     0.479313     0.139334     2.430514  3600.049950     1.943064     0.451439     0.157622 
  3861.81708     2.474239   301.785075    76.047147  7248.505665   104.042515    79.551152     0.458275     0.112239     2.474253  3792.915116     1.911065     0.442351     0.131819 
  3861.96948     2.493590   303.968629    79.201435  7356.599660   103.316148    81.848889     0.457101     0.100360     2.493621  3859.429881     1.906137     0.435027     0.121116 
  3862.12188     2.492096   308.136912    79.633230  7373.019488   103.021953    87.643100     0.445701     0.101636     2.492069  3876.145598     1.902153     0.439159     0.122877 
  3862.27428     2.477160   316.350380    76.949323  7404.329261   101.971634    89.969691     0.460174     0.111070     2.477116  3909.256663     1.894048     0.448098     0.131734 
  3862.42668     2.414510   332.496119    66.745288  7034.945514   104.621622    90.124987     0.465567     0.149943     2.414529  3735.418251     1.883280     0.477925     0.166910 
  3862.57908     2.246196   345.250205    49.768032  6051.805661   113.143137    91.517835     0.511583     0.247710     2.246217  3267.410674     1.852308     0.511749     0.000100 
  3862.73148     1.963900  -999.250000    31.962641  4900.582396   122.158620    92.404000     0.537390     0.010000     1.963886  2528.735301     1.938117     0.534003     0.000100 
  3862.88388     1.640884  -999.250000    20.073721  3856.299860   129.695052    87.125547     0.557256     0.010000     1.640859  1900.097825     2.029994     0.534426     0.000100 
  3863.03628     1.414289  -999.250000    14.299081  3268.510517   131.883110    65.273820     0.544609     0.010000     1.414243  1425.755229     2.292554     0.538483     0.000100 
  3863.18868     1.300788  -999.250000    11.839769  3004.417510   131.967485    39.351560     0.559829     0.010000     1.300805  1259.801069     2.384838     0.565996     0.000100 
  3863.34108     1.270934  -999.250000    10.716651  2934.920255   131.987307    22.046116     0.595592     0.010000     1.270907  1223.376335     2.399041     0.595262     0.000100 
  3863.49348     1.247805  -999.250000     9.914063  2900.242035   131.140913    17.009510     0.620527     0.010000     1.247835  1190.392391     2.436376     0.589440     0.000100 
  3863.64588     1.248506  -999.250000     9.517536  2929.431578   129.908259    14.632498     0.594133     0.010000     1.248548  1184.051465     2.474075     0.565414     0.000100 
  3863.79828     1.249434  -999.250000     9.254346  2945.368425   129.300278    11.458939     0.571608     0.010000     1.249465  1188.512817     2.478200     0.537773     0.000100 
  3863.95068     1.268135  -999.250000     8.699482  2994.787036   129.063738    10.308265     0.540601     0.010000     1.268105  1216.913829     2.460968     0.548758     0.000100 
  3864.10308     1.259148  -999.250000     8.022907  2959.562137   129.673115    10.627504     0.579645     0.010000     1.259107  1205.390014     2.455282     0.557497     0.000100 
  3864.25548     1.279939  -999.250000     7.140233  2996.720817   130.181713    11.217882     0.568255     0.010000     1.279916  1239.732485     2.417239     0.572060     0.000100 
  3864.40788     1.299656  -999.250000     6.140694  3034.218960   130.558939    12.204153     0.599999     0.010000     1.299686  1274.276627     2.381129     0.581049     0.000100 
  3864.56028     1.335471  -999.250000     5.795796  3123.818149   130.306264    11.138681     0.593817     0.010000     1.335475  1309.414654     2.385660     0.588294     0.000100 
  3864.71268     1.345192  -999.250000     6.335092  3169.576457   129.357902     9.799609     0.610022     0.010000     1.345176  1325.649803     2.390971     0.587400     0.000100 
  3864.86508     1.315829  -999.250000     7.900650  3174.295628   126.352069     8.347777     0.597798     0.010000     1.315870  1296.665523     2.448040     0.587383     0.000100 
  3865.01748     1.277881  -999.250000     9.098924  3041.127681   128.075838     8.613052     0.605940     0.010000     1.277868  1252.580214     2.427889     0.584839     0.000100 
  3865.16988     1.261387  -999.250000    10.335103  2972.182656   129.356229     8.269440     0.596139     0.010000     1.261386  1232.356316     2.411791     0.590784     0.000100 
  3865.32228     1.273667  -999.250000    13.502576  2992.133658   129.746415     8.012082     0.612648     0.010000     1.273676  1252.091383     2.389702     0.603331     0.000100 
  3865.47468     1.297291  -999.250000    18.672555  3111.411538   127.084953     9.455373     0.622607     0.010000     1.297260  1269.366788     2.451130     0.607631     0.000100 
  3865.62708     1.339428  -999.250000    26.195232  3350.702568   121.854919    11.878266     0.623032     0.010000     1.339386  1333.850518     2.511962     0.551832     0.000100 
  3865.77948     1.541666  -999.250000    36.242141  4180.296139   112.429934    14.742536     0.529666     0.010000     1.541637  1626.197630     2.570755     0.436256     0.000100 
  3865.93188     1.930978   348.517802    45.645651  5711.032011   103.108858    21.110458     0.399331     0.011217     1.931000  2272.551726     2.513359     0.309627     0.000100 
  3866.08428     2.320837   332.970737    52.419002  8175.520152    86.542192    29.721376     0.274725     0.180435     2.320807  3376.545664     2.421758     0.223829     0.000572 
  3866.23668     2.549757   314.549085    53.073136 10177.572367    76.361653    42.617237     0.214659     0.064121     2.549758  4572.380281     2.226070     0.183200     0.066468 
  3866.38908     2.571567   308.043616    51.120725 10654.338100    73.568626    53.705799     0.186955     0.051273     2.571599  5231.430206     2.037026     0.168153     0.062480 
  3866.54148     2.552842   303.487171    49.814034 10458.085912    74.403237    63.226232     0.180285     0.063525     2.552865  6154.353364     1.699319     0.161222     0.065960 
  3866.69388     2.544721   298.492038    51.429279 10222.254392    75.877879    64.481306     0.173274     0.068664     2.544758  6343.981494     1.611332     0.164559     0.069565 
  3866.84628     2.547633   293.076372    54.847347 10350.305355    75.025000    63.045265     0.183403     0.066792     2.547670  6301.229430     1.642586     0.173319     0.068890 
  3866.99868     2.552193   289.743355    54.646340 10193.871352    76.312310    58.782295     0.191256     0.063724     2.552212  6151.926797     1.657025     0.176173     0.066726 
