#------------------------------------------------------------------------------
#
#   Created by   : las_export
#   Created on   : 2019-11-07 11:27:48
#   Project      : GUDRUN
#   User         : MAAP
#   Interpreters : STAT, AKOLB, *
#
#------------------------------------------------------------------------------
~VERSION INFORMATION
VERS. 2.0 : CWLS Log ASCII Standard - version 2.0
WRAP.  NO : One line per depth step

~WELL INFORMATION
#MNEMONIC   .UNIT                                           VALUE :DESCRIPTION
#------------------------------------------------------------------------------
STRT        .M                                      3853.73988 :START DEPTH
STOP        .M                                      3957.21948 :STOP DEPTH
STEP        .M                                          0.1524 :STEP
NULL        .                                        -999.2500 :NULL VALUE
COMP        .                                                  :COMPANY
WELL        .                                           Well11 :WELL  #15/3-11
FLD         .                                          UNKNOWN :FIELD
LOC         .                                          UNKNOWN :LOCATION
CNTY        .                                          UNKNOWN :COUNTY
STAT        .                                          UNKNOWN :STATE
CTRY        .                                           Norway :COUNTRY
SRVC        .                                          UNKNOWN :SERVICE COMPANY
DATE        .                                          UNKNOWN :LOG DATE
UWI         .                                       NO 15/3-11 :UNIQUE WELL ID
XCOORD      .M                                     4583.300000 :SURFACE X  # 434583.300000
YCOORD      .M                                    20591.500000 :SURFACE Y  # 6520591.500000
LAT         .                                        58.818915 :LATITUDE
LON         .                                         1.867338 :LONGITUDE
ELEV        .M                                         23.0000 :SURFACE ELEV
ELEV_TYPE   .                                               KB :ELEV TYPE

~CURVE INFORMATION
#MNEMONIC   .UNIT          API CODE       : CURVE DESCRIPTION
#------------------------------------------------------------------------------
DEPTH       .M                            : Measured Depth
DEN         .g/cm3         UNKNOWN        : DEN:COMPOSITE:r1:NONE:v1
DTST        .UNKNOWN       UNKNOWN        : DTST:WIRELINE:r1:0001:v1
GR          .UNKNOWN       UNKNOWN        : GR:WIRELINE:r1:0001:v1
LFP_AI      .kPa.s/m       UNKNOWN        : LFP_AI:GeologLFP:rC:NONE:v1
LFP_DT      .us/ft         UNKNOWN        : LFP_DT:GeologLFP:rC:NONE:v1
LFP_GR      .API           UNKNOWN        : LFP_GR:GeologLFP:rC:NONE:v1
LFP_NPHI    .v/v decimal   UNKNOWN        : LFP_NPHI:GeologLFP:rC:NONE:v1
LFP_PHIT    .v/v decimal   UNKNOWN        : LFP_PHIT:GeologLFP:rC:NONE:v1
LFP_RHOB    .g/cm3         UNKNOWN        : LFP_RHOB:GeologLFP:rC:NONE:v1
LFP_SI      .kPa.s/m       UNKNOWN        : LFP_SI:GeologLFP:rC:NONE:v1
LFP_VPVS    .unitless      UNKNOWN        : LFP_VPVS:GeologLFP:rC:NONE:v1
NPHI        .UNKNOWN       UNKNOWN        : NPHI:WIRELINE:r1:0001:v1
PHIT        .v/v decimal   UNKNOWN        : PHIT:CPI:r1:NONE:v1
~A     DEPTH          DEN         DTST           GR       LFP_AI       LFP_DT       LFP_GR     LFP_NPHI     LFP_PHIT     LFP_RHOB       LFP_SI     LFP_VPVS         NPHI         PHIT 
# ...
  3940.91268     2.658927   289.208108    75.321271 10011.360561    80.951678    84.157039     0.301272     0.010029     2.658900  5161.639524     1.939568     0.278159     0.023999 
  3941.06508     2.648710   289.350267    72.960535  9726.451291    83.003795    82.471962     0.287770     0.014131     2.648723  5122.600030     1.898732     0.272095     0.028605 
  3941.21748     2.636120   289.459699    72.282912  9533.035390    84.285177    88.405671     0.286449     0.023078     2.636134  5103.648864     1.867888     0.271393     0.035405 
  3941.36988     2.624946   289.597951    74.132818  9485.248311    84.351256    85.276166     0.286156     0.029422     2.624974  5030.848367     1.885418     0.270313     0.041512 
  3941.52228     2.617375   289.692497    77.687001  9573.030315    83.335840    84.276112     0.284486     0.033962     2.617374  5012.533125     1.909822     0.272323     0.045546 
  3941.67468     2.613867   290.053871    78.222778  9686.895611    82.245921    82.567311     0.288947     0.035828     2.613866  4965.135188     1.950984     0.275906     0.047859 
  3941.82708     2.609178   290.271483    77.220707  9539.296215    83.369251    86.515017     0.292132     0.039508     2.609170  4864.364379     1.961053     0.291953     0.050722 
  3941.97948     2.606047   290.285275    77.678791  9159.913783    86.719000    86.328903     0.317090     0.041412     2.606071  4817.294223     1.901461     0.314998     0.054443 
  3942.13188     2.598657   290.450394    81.248228  8804.371149    89.962379    91.404969     0.339016     0.047018     2.598619  4672.813811     1.884168     0.344665     0.059732 
  3942.28428     2.592598   290.447849    82.447228  8592.912945    91.964159    90.248316     0.373839     0.050543     2.592607  4652.072776     1.847116     0.354278     0.063292 
  3942.43668     2.592448   290.386048    78.390476  9021.408051    87.589085    85.557383     0.366602     0.049788     2.592408  4646.434303     1.941568     0.336125     0.063391 
  3942.58908     2.613569   290.588629    70.806276  9466.646034    84.149599    76.973214     0.341264     0.035152     2.613567  4764.709307     1.986829     0.340012     0.048148 
  3942.74148     2.679798   290.998660    63.308007  9602.255039    85.064996    74.985119     0.364650     0.010000     2.679846  4890.709316     1.963373     0.356819     0.008359 
  3942.89388     2.777731   291.217239    60.006097  9872.486421    85.758188    79.297047     0.377088     0.010000     2.777694  5091.364820     1.939064     0.359398     0.001000 
  3943.04628     2.838014   291.446484    61.153160  9665.487547    89.496733    79.071192     0.372952     0.010000     2.838020  5045.327408     1.915735     0.329202     0.001000 
  3943.19868     2.839703   291.751171    64.067455  9548.613691    90.644994    84.266913     0.325405     0.010000     2.839673  4920.591835     1.940560     0.314710     0.001000 
  3943.35108     2.811912   291.982386    67.729903  9341.712874    91.747151    89.417798     0.332949     0.010000     2.811916  4683.854741     1.994447     0.331252     0.001000 
  3943.50348     2.771349   292.036651    71.001172  9042.416002    93.414981    92.061607     0.355621     0.010000     2.771318  4561.096754     1.982509     0.353992     0.001000 
  3943.65588     2.721857   292.014257    75.003702  8939.701169    92.803539    89.707804     0.378407     0.010000     2.721905  4535.928893     1.970881     0.367777     0.001159 
  3943.80828     2.659708   291.868495    76.968239  8793.448055    92.192815    87.182320     0.386109     0.010106     2.659747  4660.719166     1.886723     0.364267     0.023538 
  3943.96068     2.632922   291.555424    77.341015  8913.452877    90.034768    85.639908     0.375188     0.024841     2.632931  4820.492307     1.849079     0.344238     0.039415 
  3944.11308     2.636113   290.609211    76.183030  9137.722235    87.930660    83.857888     0.348988     0.022556     2.636085  4982.414466     1.833990     0.319980     0.037399 
  3944.26548     2.651862   290.024642    75.365891  9496.875721    85.110781    81.258176     0.326096     0.012291     2.651853  5106.751664     1.859670     0.302093     0.027063 
  3944.41788     2.646397   289.834157    75.380815  9658.054374    83.517508    83.099129     0.311578     0.016059     2.646378  5168.939653     1.868480     0.300981     0.031013 
  3944.57028     2.631886   289.645658    75.672568  9723.651492    82.500886    84.014330     0.319291     0.025218     2.631922  5140.832192     1.891455     0.298167     0.039924 
  3944.72268     2.616047   289.612398    75.323579  9743.056651    81.839588    81.692973     0.309434     0.034633     2.616035  5127.297858     1.900233     0.293218     0.048352 
  3944.87508     2.622685   289.752528    73.892645  9686.348206    82.527694    80.270086     0.307845     0.030257     2.622672  5061.571637     1.913731     0.280924     0.043974 
  3945.02748     2.634665   289.728875    72.679539  9539.909173    84.178727    84.321806     0.288115     0.023611     2.634688  4800.009907     1.987477     0.269571     0.036344 
  3945.17988     2.643822   289.488327    73.325640  9295.685380    86.690798    90.421804     0.281844     0.019137     2.643852  4672.758375     1.989335     0.265359     0.030760 
  3945.33228     2.646836   289.236949    73.352933  9051.914808    89.126642    91.931392     0.279062     0.017579     2.646871  4660.884531     1.942125     0.274244     0.028858 
  3945.48468     2.637800   288.824411    74.450532  8953.354193    89.800352    91.085320     0.296082     0.023039     2.637826  4833.950933     1.852255     0.296033     0.035316 
  3945.63708     2.623708   288.513236    75.574783  9204.713823    86.882903    91.667670     0.321298     0.031926     2.623709  5286.605459     1.741186     0.331124     0.044876 
  3945.78948     2.610879   287.566993    78.362772  9828.518791    80.973045    91.262650     0.363076     0.039817     2.610884  5852.195943     1.679458     0.364599     0.052440 
  3945.94188     2.622257   286.627027    75.548338 10802.982641    73.994994    73.108825     0.390988     0.029320     2.622274  6424.983584     1.681341     0.363950     0.041508 
  3946.09428     2.672767   285.663734    61.865627 12430.178916    65.541691    50.197323     0.371296     0.010000     2.672809  6941.950357     1.790578     0.296047     0.002779 
  3946.24668     2.752235   284.884643    42.652448 13456.012977    62.345280    30.140523     0.270759     0.010000     2.752270  7416.921544     1.814214     0.198124     0.001000 
  3946.39908     2.784957   284.445681    28.525039 14478.218961    58.629895    26.607494     0.174296     0.010000     2.784941  7666.187346     1.888583     0.126954     0.001000 
  3946.55148     2.764687   284.220175    24.791602 14912.315135    56.508501    28.203978     0.120007     0.010000     2.764675  7638.547494     1.952245     0.105018     0.001000 
  3946.70388     2.720935   284.103270    25.297694 14881.451952    55.732243    27.221421     0.119692     0.010000     2.720958  7661.415239     1.942373     0.092508     0.001000 
  3946.85628     2.711868   283.974423    24.042748 15935.272505    51.871607    22.894206     0.099130     0.010000     2.711895  7917.655768     2.012627     0.063608     0.001000 
  3947.00868     2.721324   283.794757    19.842071 16314.240244    50.842434    17.225145     0.064640     0.010000     2.721308  7890.488089     2.067583     0.034818     0.001000 
  3947.16108     2.724670   283.678370    15.155129 16100.657292    51.582690    14.930514     0.038674     0.010000     2.724716  7793.421414     2.065933     0.022485     0.001000 
  3947.31348     2.720498   283.673505    12.062550 15135.774501    54.787504    14.012551     0.033178     0.010000     2.720545  7819.658961     1.935611     0.020292     0.001000 
  3947.46588     2.720188   283.688432    10.952960 14105.307526    58.780810    12.967343     0.031703     0.010000     2.720214  7862.088221     1.794093     0.019089     0.001000 
