#------------------------------------------------------------------------------
#
#   Created by   : las_export
#   Created on   : 2019-11-07 11:27:48
#   Project      : GUDRUN
#   User         : MAAP
#   Interpreters : STAT, AKOLB, *
#
#------------------------------------------------------------------------------
~VERSION INFORMATION
VERS. 2.0 : CWLS Log ASCII Standard - version 2.0
WRAP.  NO : One line per depth step

~WELL INFORMATION
#MNEMONIC   .UNIT                                           VALUE :DESCRIPTION
#------------------------------------------------------------------------------
STRT        .M                                      3853.73988 :START DEPTH
STOP        .M                                      3957.21948 :STOP DEPTH
STEP        .M                                          0.1524 :STEP
NULL        .                                        -999.2500 :NULL VALUE
COMP        .                                                  :COMPANY
WELL        .                                           Well11 :WELL  #15/3-11
FLD         .                                          UNKNOWN :FIELD
LOC         .                                          UNKNOWN :LOCATION
CNTY        .                                          UNKNOWN :COUNTY
STAT        .                                          UNKNOWN :STATE
CTRY        .                                           Norway :COUNTRY
SRVC        .                                          UNKNOWN :SERVICE COMPANY
DATE        .                                          UNKNOWN :LOG DATE
UWI         .                                       NO 15/3-11 :UNIQUE WELL ID
XCOORD      .M                                     4583.300000 :SURFACE X  # 434583.300000
YCOORD      .M                                    20591.500000 :SURFACE Y  # 6520591.500000
LAT         .                                        58.818915 :LATITUDE
LON         .                                         1.867338 :LONGITUDE
ELEV        .M                                         23.0000 :SURFACE ELEV
ELEV_TYPE   .                                               KB :ELEV TYPE

~CURVE INFORMATION
#MNEMONIC   .UNIT          API CODE       : CURVE DESCRIPTION
#------------------------------------------------------------------------------
DEPTH       .M                            : Measured Depth
DEN         .g/cm3         UNKNOWN        : DEN:COMPOSITE:r1:NONE:v1
DTST        .UNKNOWN       UNKNOWN        : DTST:WIRELINE:r1:0001:v1
GR          .UNKNOWN       UNKNOWN        : GR:WIRELINE:r1:0001:v1
LFP_AI      .kPa.s/m       UNKNOWN        : LFP_AI:GeologLFP:rC:NONE:v1
LFP_DT      .us/ft         UNKNOWN        : LFP_DT:GeologLFP:rC:NONE:v1
LFP_GR      .API           UNKNOWN        : LFP_GR:GeologLFP:rC:NONE:v1
LFP_NPHI    .v/v decimal   UNKNOWN        : LFP_NPHI:GeologLFP:rC:NONE:v1
LFP_PHIT    .v/v decimal   UNKNOWN        : LFP_PHIT:GeologLFP:rC:NONE:v1
LFP_RHOB    .g/cm3         UNKNOWN        : LFP_RHOB:GeologLFP:rC:NONE:v1
LFP_SI      .kPa.s/m       UNKNOWN        : LFP_SI:GeologLFP:rC:NONE:v1
LFP_VPVS    .unitless      UNKNOWN        : LFP_VPVS:GeologLFP:rC:NONE:v1
NPHI        .UNKNOWN       UNKNOWN        : NPHI:WIRELINE:r1:0001:v1
PHIT        .v/v decimal   UNKNOWN        : PHIT:CPI:r1:NONE:v1
~A     DEPTH          DEN         DTST           GR       LFP_AI       LFP_DT       LFP_GR     LFP_NPHI     LFP_PHIT     LFP_RHOB       LFP_SI     LFP_VPVS         NPHI         PHIT 
# ...
  3920.79588     2.450398   293.768355    46.607586  9541.457018    78.277159    46.855097     0.170306     0.119969     2.450370  5982.898619     1.594792     0.155947     0.117683 
  3920.94828     2.422088   293.732062    44.676541  9797.651225    75.349133    48.325844     0.171131     0.135162     2.422053  5933.842502     1.651149     0.147871     0.132381 
  3921.10068     2.406583   293.124858    37.587100 10001.608945    73.342891    50.071021     0.157028     0.143425     2.406605  6093.295200     1.641404     0.128514     0.139320 
  3921.25308     2.418310   292.392575    31.813361 10550.818760    69.860713    47.429315     0.134177     0.136772     2.418267  6222.935444     1.695473     0.115705     0.131571 
  3921.40548     2.447888   291.898661    33.840222 10515.187285    70.956116    43.533376     0.128182     0.120080     2.447873  6217.307543     1.691277     0.116464     0.115802 
  3921.55788     2.474268   291.164364    45.702737 10238.543690    73.658833    36.354731     0.133362     0.104595     2.474276  6061.269802     1.689181     0.126067     0.102591 
  3921.71028     2.483721   290.415412    60.152735 10294.268841    73.538438    35.439972     0.145949     0.106930     2.483676  5938.608405     1.733450     0.136226     0.098743 
  3921.86268     2.486868   289.660092    72.320568 10403.438683    72.859954    42.426421     0.154406     0.106087     2.486851  5907.279732     1.761120     0.155206     0.097797 
  3922.01508     2.510731   288.987534    80.584933 10648.247699    71.868475    58.096938     0.180536     0.093799     2.510737  6011.356844     1.771355     0.186069     0.087631 
  3922.16748     2.557337   288.220896    85.103660 10911.988844    71.432927    74.713143     0.214489     0.067582     2.557335  6150.636428     1.774128     0.211409     0.072942 
  3922.31988     2.604669   287.580213    85.939659 10914.530047    72.738748    85.434865     0.234141     0.039952     2.604689  6251.772112     1.745832     0.227711     0.048169 
  3922.47228     2.628328   287.445211    83.033112 10899.067196    73.504485    92.665221     0.248217     0.026454     2.628360  6319.202139     1.724754     0.229122     0.036286 
  3922.62468     2.632252   287.910349    76.106249 11281.734685    71.115422    99.155979     0.241046     0.025135     2.632210  6542.276271     1.724473     0.202150     0.033529 
  3922.77708     2.625554   288.436706    64.347277 11694.089199    68.434694    98.735797     0.200902     0.029198     2.625581  7054.894818     1.657593     0.149589     0.033604 
  3922.92948     2.619106   288.828942    51.346727 12009.642736    66.470997    89.605353     0.140021     0.031774     2.619071  7355.027637     1.632848     0.103081     0.028954 
  3923.08188     2.620082   289.057769    41.226259 11989.594638    66.609254    74.328087     0.103147     0.028674     2.620097  7355.833646     1.629947     0.085337     0.025401 
  3923.23428     2.631514   289.138586    36.000327 11469.044481    69.936568    62.278457     0.098151     0.019634     2.631533  6984.252500     1.642122     0.090886     0.019184 
  3923.38668     2.619280   289.164459    35.647274 10882.745758    73.360619    50.931165     0.110777     0.025382     2.619305  6731.523698     1.616682     0.103950     0.026437 
  3923.53908     2.588454   289.117120    42.231489 10690.121335    73.802234    44.770936     0.124143     0.043536     2.588431  6650.609608     1.607415     0.126556     0.043356 
  3923.69148     2.568172   289.034631    54.957342 10801.411950    72.470091    48.363836     0.152874     0.056703     2.568162  6379.032051     1.693270     0.149979     0.056082 
  3923.84388     2.578478   288.914106    66.211469 11096.469400    70.825235    64.429768     0.172787     0.052971     2.578428  6351.152263     1.747160     0.161837     0.052414 
  3923.99628     2.603523   288.803225    71.082627 11486.846240    69.084988    78.956737     0.179253     0.039768     2.603571  6320.174341     1.817488     0.167482     0.043991 
  3924.14868     2.634935   288.481895    71.920200 11565.582506    69.442440    87.639469     0.184424     0.021784     2.634981  6340.124353     1.824190     0.179949     0.026940 
  3924.30108     2.667939   288.029252    75.647243 11515.242573    70.619186    89.806066     0.201661     0.010000     2.667958  6285.927161     1.831908     0.202406     0.010285 
  3924.45348     2.687249   287.237770    81.274401 11255.910768    72.770572    95.587973     0.227676     0.010000     2.687292  6236.014937     1.804982     0.233478     0.002019 
  3924.60588     2.665812   286.677375    85.257033 10702.218575    75.923376    96.180567     0.262088     0.010136     2.665819  5953.813553     1.797546     0.275133     0.016949 
  3924.75828     2.625307   286.532470    83.706637 10241.762892    78.131865    96.354857     0.309031     0.029216     2.625332  5651.208733     1.812316     0.294782     0.043321 
  3924.91068     2.598509   286.330994    76.290171 10569.656695    74.939303    78.661179     0.310729     0.042929     2.598542  5632.367104     1.876579     0.261738     0.057704 
  3925.06308     2.614057   286.080930    61.782273 11623.270795    68.555987    57.492616     0.253995     0.029898     2.614101  6118.584653     1.899691     0.177195     0.040431 
  3925.21548     2.664234   286.141578    45.258460 13077.183390    62.101656    34.995720     0.150691     0.010000     2.664280  6977.877073     1.874128     0.086453     0.001442 
  3925.36788     2.696813   286.362395    34.793859 14321.843146    57.393985    28.639731     0.068351     0.010000     2.696789  7817.919057     1.831940     0.034674     0.001000 
  3925.52028     2.684220   286.824134    35.214006 13806.928552    59.259921    32.595413     0.034845     0.010101     2.684229  7968.640114     1.732633     0.031002     0.001154 
  3925.67268     2.616510   287.293920    38.323665 12463.771844    63.992491    34.692825     0.051825     0.024555     2.616498  7744.006722     1.609423     0.061457     0.023018 
  3925.82508     2.533520   288.153049    37.233775 10877.018659    70.997465    31.659747     0.092586     0.075431     2.533543  7203.713361     1.509915     0.099926     0.068953 
  3925.97748     2.466194   289.450058    31.400749 10138.266390    74.144564    24.396942     0.129564     0.105277     2.466188  6746.537727     1.502753     0.118683     0.106007 
  3926.12988     2.437362   290.854939    25.495237  9834.185574    75.542532    21.412407     0.136163     0.121026     2.437333  6368.136784     1.544281     0.116051     0.120864 
  3926.28228     2.432091   291.684980    21.697212  9792.716851    75.698604    21.394072     0.127364     0.125058     2.432070  6298.967696     1.554659     0.108702     0.123745 
  3926.43468     2.430650   292.199014    19.047270  9832.519262    75.347379    20.815822     0.120938     0.125834     2.430624  6442.667985     1.526156     0.109070     0.124188 
  3926.58708     2.409603   292.580595    17.890313  9865.042014    74.450653    18.284418     0.125958     0.137992     2.409633  6435.870427     1.532825     0.119497     0.135073 
  3926.73948     2.396055   292.916235    16.207219 10068.810623    72.534118    16.557132     0.139917     0.146058     2.396098  6381.818685     1.577734     0.118903     0.141964 
  3926.89188     2.403980   292.974883    14.049803 10267.097996    71.367237    14.220625     0.129601     0.143029     2.403969  6374.401358     1.610672     0.104268     0.136900 
  3927.04428     2.429393   292.760561    11.622307 10631.272029    69.651594    13.946813     0.112024     0.130822     2.429412  6476.992619     1.641395     0.084533     0.122814 
  3927.19668     2.456460   292.487799    10.634180 10790.441602    69.388690    14.264265     0.090906     0.118882     2.456467  6665.461154     1.618869     0.074496     0.108026 
  3927.34908     2.464915   292.305510    12.425674 10539.043690    71.288565    17.609709     0.088259     0.114893     2.464932  6802.736397     1.549234     0.073900     0.103512 
