#------------------------------------------------------------------------------
#
#   Created by   : las_export
#   Created on   : 2019-11-07 11:27:48
#   Project      : GUDRUN
#   User         : MAAP
#   Interpreters : STAT, AKOLB, *
#
#------------------------------------------------------------------------------
~VERSION INFORMATION
VERS. 2.0 : CWLS Log ASCII Standard - version 2.0
WRAP.  NO : One line per depth step

~WELL INFORMATION
#MNEMONIC   .UNIT                                           VALUE :DESCRIPTION
#------------------------------------------------------------------------------
STRT        .M                                      3853.73988 :START DEPTH
STOP        .M                                      3957.21948 :STOP DEPTH
STEP        .M                                          0.1524 :STEP
NULL        .                                        -999.2500 :NULL VALUE
COMP        .                                                  :COMPANY
WELL        .                                           Well11 :WELL  #15/3-11
FLD         .                                          UNKNOWN :FIELD
LOC         .                                          UNKNOWN :LOCATION
CNTY        .                                          UNKNOWN :COUNTY
STAT        .                                          UNKNOWN :STATE
CTRY        .                                           Norway :COUNTRY
SRVC        .                                          UNKNOWN :SERVICE COMPANY
DATE        .                                          UNKNOWN :LOG DATE
UWI         .                                       NO 15/3-11 :UNIQUE WELL ID
XCOORD      .M                                     4583.300000 :SURFACE X  # 434583.300000
YCOORD      .M                                    20591.500000 :SURFACE Y  # 6520591.500000
LAT         .                                        58.818915 :LATITUDE
LON         .                                         1.867338 :LONGITUDE
ELEV        .M                                         23.0000 :SURFACE ELEV
ELEV_TYPE   .                                               KB :ELEV TYPE

~CURVE INFORMATION
#MNEMONIC   .UNIT          API CODE       : CURVE DESCRIPTION
#------------------------------------------------------------------------------
DEPTH       .M                            : Measured Depth
DEN         .g/cm3         UNKNOWN        : DEN:COMPOSITE:r1:NONE:v1
DTST        .UNKNOWN       UNKNOWN        : DTST:WIRELINE:r1:0001:v1
GR          .UNKNOWN       UNKNOWN        : GR:WIRELINE:r1:0001:v1
LFP_AI      .kPa.s/m       UNKNOWN        : LFP_AI:GeologLFP:rC:NONE:v1
LFP_DT      .us/ft         UNKNOWN        : LFP_DT:GeologLFP:rC:NONE:v1
LFP_GR      .API           UNKNOWN        : LFP_GR:GeologLFP:rC:NONE:v1
LFP_NPHI    .v/v decimal   UNKNOWN        : LFP_NPHI:GeologLFP:rC:NONE:v1
LFP_PHIT    .v/v decimal   UNKNOWN        : LFP_PHIT:GeologLFP:rC:NONE:v1
LFP_RHOB    .g/cm3         UNKNOWN        : LFP_RHOB:GeologLFP:rC:NONE:v1
LFP_SI      .kPa.s/m       UNKNOWN        : LFP_SI:GeologLFP:rC:NONE:v1
LFP_VPVS    .unitless      UNKNOWN        : LFP_VPVS:GeologLFP:rC:NONE:v1
NPHI        .UNKNOWN       UNKNOWN        : NPHI:WIRELINE:r1:0001:v1
PHIT        .v/v decimal   UNKNOWN        : PHIT:CPI:r1:NONE:v1
~A     DEPTH          DEN         DTST           GR       LFP_AI       LFP_DT       LFP_GR     LFP_NPHI     LFP_PHIT     LFP_RHOB       LFP_SI     LFP_VPVS         NPHI         PHIT 
# ...
  3887.26788     2.373235   296.648816    13.218322  9143.224444    79.114552    16.195633     0.143120     0.145939     2.373231  6079.588946     1.503920     0.123527     0.154453 
  3887.42028     2.363970   297.085387    13.500505  8983.510901    80.206386    16.884763     0.135140     0.150715     2.363947  6012.773940     1.494073     0.112663     0.159764 
  3887.57268     2.331604   297.337353    13.615475  8673.323027    81.939060    16.271675     0.122321     0.167384     2.331640  5779.571358     1.500687     0.107274     0.176458 
  3887.72508     2.304102   297.557308    14.028698  8666.189865    81.036918    16.447587     0.121890     0.181768     2.304070  5757.911721     1.505126     0.118432     0.190837 
  3887.87748     2.290324   297.810142    13.951096  8527.919253    81.861513    15.151843     0.140790     0.188909     2.290320  5397.779721     1.579884     0.138300     0.199342 
  3888.02988     2.279669   298.206067    14.800514  7998.024943    86.876402    15.544398     0.161327     0.194881     2.279648  5163.745090     1.548880     0.153328     0.205720 
  3888.18228     2.275228   298.523974    14.983268  7796.570527    88.947140    15.853961     0.172737     0.197384     2.275206  5153.050176     1.513006     0.157487     0.208253 
  3888.33468     2.265080   298.800785    14.972549  7782.262384    88.714451    15.419673     0.172048     0.202579     2.265063  5042.652058     1.543285     0.155469     0.213704 
  3888.48708     2.262338   299.162252    14.095510  8097.640616    85.156023    15.639043     0.169166     0.203989     2.262325  5196.602570     1.558259     0.150853     0.215274 
  3888.63948     2.267807   299.166018    13.065983  8405.176170    82.240037    14.998051     0.163394     0.201051     2.267838  5168.724203     1.626157     0.143741     0.212057 
  3888.79188     2.282878   298.691665    12.867272  8706.353207    79.920864    16.178393     0.155388     0.193380     2.282867  5288.737446     1.646239     0.134845     0.204129 
  3888.94428     2.293903   298.224224    12.642181  8873.147149    78.797026    17.294900     0.145866     0.187712     2.293890  5631.622585     1.575603     0.126536     0.197823 
  3889.09668     2.308419   297.874475    12.849870  8924.316583    78.840179    18.819532     0.138369     0.180208     2.308380  5815.966791     1.534452     0.116951     0.189733 
  3889.24908     2.325349   297.438353    13.085167  9046.001845    78.349990    17.833241     0.127357     0.171135     2.325306  5910.583660     1.530475     0.109597     0.180117 
  3889.40148     2.360114   297.139730    13.500217  9247.605662    77.789983    16.060201     0.122388     0.152718     2.360141  6050.923115     1.528298     0.109246     0.161581 
  3889.55388     2.361945   296.962704    13.811668  9256.778399    77.772465    14.496050     0.125274     0.151577     2.361948  5970.750821     1.550355     0.116180     0.160132 
  3889.70628     2.354116   296.740046    14.233827  9121.171757    78.669166    15.192417     0.134843     0.155843     2.354163  5992.885800     1.521996     0.128265     0.164629 
  3889.85868     2.328326   296.537821    15.518049  8760.634234    81.006177    16.266905     0.148658     0.169701     2.328295  5884.518414     1.488762     0.137945     0.179180 
  3890.01108     2.317982   296.275198    17.542098  8607.856446    82.077434    19.469099     0.155523     0.175885     2.317949  5737.245506     1.500347     0.144683     0.185822 
  3890.16348     2.315453   296.162697    19.480470  8627.490791    81.802330    22.457589     0.162223     0.178217     2.315437  5706.273639     1.511931     0.141998     0.187689 
  3890.31588     2.323005   296.045406    20.132127  8877.299344    79.762533    23.785959     0.153140     0.174757     2.323025  5699.990016     1.557414     0.126679     0.183081 
  3890.46828     2.337763   295.525830    18.456504  9453.281562    75.376831    22.153764     0.133804     0.167596     2.337782  5810.331853     1.626976     0.108538     0.173975 
  3890.62068     2.360763   294.789039    17.094292  9712.169946    74.088574    19.805300     0.116372     0.155974     2.360753  5922.457918     1.639885     0.099284     0.160697 
  3890.77308     2.383650   294.234231    17.187868 10017.368563    72.528445    18.611657     0.112614     0.144491     2.383667  6015.883717     1.665152     0.096866     0.148434 
  3890.92548     2.404716   293.702638    20.707456 10296.416193    71.186387    19.168359     0.111033     0.134220     2.404737  6069.269399     1.696486     0.091765     0.137293 
  3891.07788     2.421130   292.809297    25.200655 10458.980295    70.557585    23.258234     0.103639     0.125898     2.421129  6208.443412     1.684638     0.086664     0.128225 
  3891.23028     2.439448   291.954090    31.880488 10402.242754    71.478773    31.543557     0.100042     0.116537     2.439412  6197.286620     1.678536     0.096451     0.118505 
  3891.38268     2.460252   291.085453    42.783700 10084.514617    74.361190    44.708309     0.118794     0.107832     2.460285  5837.887093     1.727426     0.134261     0.109035 
  3891.53508     2.481822   290.366040    56.040997  9952.981489    76.002442    56.665959     0.169366     0.109534     2.481790  5745.820816     1.732219     0.173356     0.101758 
  3891.68748     2.527116   290.022550    67.484066 10223.782822    75.340703    70.896490     0.200791     0.083059     2.527120  5667.276444     1.804015     0.196644     0.080327 
  3891.83988     2.571535   289.835123    72.391743 10459.736415    74.936496    80.185558     0.218537     0.056575     2.571556  5548.876686     1.885032     0.203376     0.065296 
  3891.99228     2.604236   289.799317    74.482466 10179.943174    77.975964    86.533683     0.218005     0.037044     2.604244  5293.722627     1.923031     0.229915     0.046944 
  3892.14468     2.595237   289.957356    76.145592  9613.428337    82.285617    86.413256     0.262664     0.042634     2.595240  4947.413624     1.943114     0.277190     0.055826 
  3892.29708     2.586394   290.076421    77.771049  9069.781942    86.917840    85.549355     0.312104     0.048061     2.586358  4730.137137     1.917448     0.320645     0.064965 
  3892.44948     2.585574   290.316945    77.673374  8828.679889    89.263473    86.932085     0.351777     0.048735     2.585560  4579.870409     1.927728     0.342369     0.067484 
  3892.60188     2.595936   290.601010    76.653787  8817.598577    89.732920    86.749523     0.361479     0.042317     2.595895  4434.186752     1.988549     0.352644     0.061360 
  3892.75428     2.601009   290.753925    76.660647  8828.866465    89.793415    83.257918     0.372164     0.038779     2.600965  4416.886026     1.998890     0.359213     0.057991 
  3892.90668     2.602178   290.828181    77.887586  8841.670587    89.704507    83.305827     0.375977     0.038062     2.602155  4445.640826     1.988841     0.361144     0.057303 
  3893.05908     2.599102   290.754244    79.315881  8948.341478    88.530069    84.534470     0.376724     0.040136     2.599072  4521.252317     1.979176     0.352710     0.059480 
  3893.21148     2.599401   290.605025    80.930686  9007.178385    87.964166    87.559457     0.362151     0.040283     2.599435  4605.988020     1.955540     0.339090     0.059265 
  3893.36388     2.599619   290.469747    81.391265  9132.349150    86.765318    89.868444     0.349074     0.040448     2.599637  4722.745576     1.933694     0.322616     0.059146 
  3893.51628     2.602255   290.280163    79.909174  9298.880941    85.297847    91.168403     0.330457     0.038990     2.602263  4788.696582     1.941839     0.310045     0.057588 
  3893.66868     2.610074   290.094072    77.649023  9583.660856    83.012039    91.093451     0.321904     0.034137     2.610098  4929.522664     1.944138     0.301871     0.052620 
  3893.82108     2.620416   289.976853    75.343250  9752.940203    81.894330    86.286940     0.313945     0.027166     2.620441  5048.161199     1.931979     0.297611     0.046316 
