#------------------------------------------------------------------------------
#
#   Created by   : las_export
#   Created on   : 2019-11-07 11:27:48
#   Project      : GUDRUN
#   User         : MAAP
#   Interpreters : STAT, AKOLB, *
#
#------------------------------------------------------------------------------
~VERSION INFORMATION
VERS. 2.0 : CWLS Log ASCII Standard - version 2.0
WRAP.  NO : One line per depth step

~WELL INFORMATION
#MNEMONIC   .UNIT                                           VALUE :DESCRIPTION
#------------------------------------------------------------------------------
STRT        .M                                      3853.73988 :START DEPTH
STOP        .M                                      3957.21948 :STOP DEPTH
STEP        .M                                          0.1524 :STEP
NULL        .                                        -999.2500 :NULL VALUE
COMP        .                                                  :COMPANY
WELL        .                                           Well11 :WELL  #15/3-11
FLD         .                                          UNKNOWN :FIELD
LOC         .                                          UNKNOWN :LOCATION
CNTY        .                                          UNKNOWN :COUNTY
STAT        .                                          UNKNOWN :STATE
CTRY        .                                           Norway :COUNTRY
SRVC        .                                          UNKNOWN :SERVICE COMPANY
DATE        .                                          UNKNOWN :LOG DATE
UWI         .                                       NO 15/3-11 :UNIQUE WELL ID
XCOORD      .M                                     4583.300000 :SURFACE X  # 434583.300000
YCOORD      .M                                    20591.500000 :SURFACE Y  # 6520591.500000
LAT         .                                        58.818915 :LATITUDE
LON         .                                         1.867338 :LONGITUDE
ELEV        .M                                         23.0000 :SURFACE ELEV
ELEV_TYPE   .                                               KB :ELEV TYPE

~CURVE INFORMATION
#MNEMONIC   .UNIT          API CODE       : CURVE DESCRIPTION
#------------------------------------------------------------------------------
DEPTH       .M                            : Measured Depth
DEN         .g/cm3         UNKNOWN        : DEN:COMPOSITE:r1:NONE:v1
DTST        .UNKNOWN       UNKNOWN        : DTST:WIRELINE:r1:0001:v1
GR          .UNKNOWN       UNKNOWN        : GR:WIRELINE:r1:0001:v1
LFP_AI      .kPa.s/m       UNKNOWN        : LFP_AI:GeologLFP:rC:NONE:v1
LFP_DT      .us/ft         UNKNOWN        : LFP_DT:GeologLFP:rC:NONE:v1
LFP_GR      .API           UNKNOWN        : LFP_GR:GeologLFP:rC:NONE:v1
LFP_NPHI    .v/v decimal   UNKNOWN        : LFP_NPHI:GeologLFP:rC:NONE:v1
LFP_PHIT    .v/v decimal   UNKNOWN        : LFP_PHIT:GeologLFP:rC:NONE:v1
LFP_RHOB    .g/cm3         UNKNOWN        : LFP_RHOB:GeologLFP:rC:NONE:v1
LFP_SI      .kPa.s/m       UNKNOWN        : LFP_SI:GeologLFP:rC:NONE:v1
LFP_VPVS    .unitless      UNKNOWN        : LFP_VPVS:GeologLFP:rC:NONE:v1
NPHI        .UNKNOWN       UNKNOWN        : NPHI:WIRELINE:r1:0001:v1
PHIT        .v/v decimal   UNKNOWN        : PHIT:CPI:r1:NONE:v1
~A     DEPTH          DEN         DTST           GR       LFP_AI       LFP_DT       LFP_GR     LFP_NPHI     LFP_PHIT     LFP_RHOB       LFP_SI     LFP_VPVS         NPHI         PHIT 
  3853.73988     2.639460   291.494502    82.842877  9728.839155    82.693925    91.248500     0.301968     0.010000     2.639488  5204.385764     1.869353     0.277306     0.036646 
  3853.89228     2.647791   291.592445    81.861239  9757.265415    82.714061    94.427603     0.285861     0.010000     2.647838  5216.933660     1.870309     0.263205     0.030599 
  3854.04468     2.646387   291.725609    81.216691  9564.749086    84.333764    90.808225     0.272908     0.010026     2.646411  5253.489958     1.820645     0.264073     0.026537 
  3854.19708     2.630507   291.796869    81.727530  9247.118734    86.705214    90.380036     0.282773     0.013663     2.630488  5211.715588     1.774294     0.275021     0.035699 
  3854.34948     2.617468   291.821124    83.227664  9118.516780    87.492171    90.358729     0.294739     0.021799     2.617449  5156.541175     1.768347     0.293163     0.044113 
  3854.50188     2.613085   291.767820    84.170891  9175.988719    86.799701    93.198002     0.317485     0.024601     2.613099  5049.549510     1.817191     0.302553     0.050670 
  3854.65428     2.625134   291.673575    82.562900  9271.941377    86.298390    95.584096     0.318073     0.017229     2.625175  5016.998306     1.848105     0.310407     0.047334 
  3854.80668     2.643977   291.599315    79.605968  9381.641658    85.899976    95.106803     0.330760     0.010000     2.643972  5089.355327     1.843388     0.311476     0.035932 
  3854.95908     2.654745   291.475328    76.618326  9457.822767    85.555564    97.737311     0.324050     0.010000     2.654753  5194.881421     1.820607     0.307851     0.028621 
  3855.11148     2.660972   291.143585    75.856820  9576.672274    84.692492    97.515836     0.322432     0.010000     2.660998  5309.204723     1.803788     0.300449     0.023323 
  3855.26388     2.657084   290.733890    75.905415  9604.496694    84.321852    96.081351     0.311186     0.010000     2.657050  5360.699916     1.791652     0.292833     0.024382 
  3855.41628     2.654749   290.440795    76.451568  9614.337863    84.163580    94.822851     0.305958     0.010000     2.654780  5298.765279     1.814449     0.297888     0.025875 
  3855.56868     2.647629   290.357965    76.580661  9664.813085    83.500886    91.214180     0.317978     0.010000     2.647678  5335.955540     1.811257     0.311068     0.029148 
  3855.72108     2.651694   290.662404    73.819375 10049.820678    80.424898    93.513309     0.331836     0.010000     2.651671  5452.140735     1.843310     0.306005     0.030231 
  3855.87348     2.650692   291.196616    65.762362 10754.098133    75.128816    98.818939     0.314226     0.010070     2.650722  5978.384663     1.798858     0.261584     0.026963 
  3856.02588     2.621206   291.899436    52.409104 10937.544693    73.046881    99.398488     0.251490     0.020154     2.621221  6320.794137     1.730437     0.199143     0.032691 
  3856.17828     2.551715   292.382408    37.923164 10434.797039    74.538031    90.097550     0.188989     0.063073     2.551763  6527.333409     1.598621     0.160657     0.066766 
  3856.33068     2.483600   293.006605    27.684240  9802.456282    77.225067    66.682682     0.166498     0.104716     2.483576  6352.124369     1.543181     0.154215     0.100534 
  3856.48308     2.441685   294.350392    22.614003  9552.767864    77.907681    44.550863     0.170718     0.117108     2.441704  6134.045675     1.557342     0.156449     0.122451 
  3856.63548     2.439723   295.579908    20.978782  9762.861532    76.168857    30.859145     0.171653     0.117246     2.439716  6039.949236     1.616388     0.148846     0.122632 
  3856.78788     2.457063   296.741727    19.885839  9901.661341    75.635042    26.018459     0.158279     0.107001     2.457054  6234.526984     1.588206     0.140805     0.111579 
  3856.94028     2.479738   297.460991    19.169135  9726.778246    77.706679    24.871880     0.153850     0.106070     2.479753  6355.300071     1.530497     0.141718     0.098764 
  3857.09268     2.470618   298.359370    19.369347  9363.333825    80.426912    22.637051     0.158304     0.111544     2.470626  6140.637687     1.524828     0.159529     0.103034 
  3857.24508     2.402716   299.446640    19.441830  8704.721520    84.131313    23.363597     0.185028     0.135283     2.402670  5625.090814     1.547494     0.178870     0.140545 
  3857.39748     2.320703   300.193790    18.911103  8237.886225    85.866133    23.920619     0.199512     0.177353     2.320712  5231.540287     1.574655     0.189331     0.185665 
  3857.54988     2.265061   301.073214    18.048990  7931.855321    87.040235    23.125843     0.207208     0.205295     2.265051  5105.680334     1.553534     0.194031     0.215961 
  3857.70228     2.245584   301.672728    18.035897  7698.097908    88.913917    23.776897     0.210029     0.214726     2.245624  5008.218302     1.537092     0.198628     0.226802 
  3857.85468     2.229244   301.740530    18.359473  7518.258787    90.376945    24.289936     0.215717     0.222145     2.229256  4971.344925     1.512321     0.202763     0.235920 
  3858.00708     2.207382   301.156808    18.929929  7439.143060    90.442863    24.958350     0.218830     0.233274     2.207404  4870.254253     1.527473     0.197314     0.247952 
  3858.15948     2.205258   300.469758    21.441809  7520.431932    89.379189    22.403983     0.207737     0.234587     2.205284  4764.552572     1.578415     0.199665     0.248315 
  3858.31188     2.255873   299.815000    29.772715  7651.004153    89.869046    25.839738     0.219047     0.209394     2.255861  4727.452265     1.618415     0.239450     0.220477 
  3858.46428     2.336427   298.486440    42.852664  7998.948333    89.030760    42.457741     0.277785     0.168578     2.336436  4800.669356     1.666206     0.276835     0.001260 
  3858.61668     2.410393   297.386247    52.534437  8453.347658    86.913781    61.264543     0.301355     0.131350     2.410408  4953.679004     1.706464     0.281863     0.163187 
  3858.76908     2.451443   296.318552    52.989368  9074.984356    82.338298    73.004851     0.294043     0.125441     2.451454  5183.026962     1.750916     0.246249     0.139437 
  3858.92148     2.471468   295.726234    45.837420  9620.670231    78.299188    72.898086     0.239229     0.113072     2.471423  5564.342367     1.728990     0.208650     0.123582 
  3859.07388     2.480946   295.837465    38.607476  9772.094938    77.383790    67.317972     0.212914     0.106970     2.480975  5721.853544     1.707856     0.186147     0.104964 
  3859.22628     2.473262   295.216219    36.986195  9639.794643    78.205042    58.414745     0.192961     0.111370     2.473229  5619.439437     1.715413     0.178612     0.108105 
  3859.37868     2.453984   294.393246    42.283808  8803.340810    84.965602    47.701729     0.193735     0.108386     2.453986  5398.060301     1.630832     0.225628     0.118031 
  3859.53108     2.451875   293.859375    51.688500  8507.514320    87.842396    42.988784     0.271598     0.110569     2.451840  5249.254715     1.620710     0.289619     0.119973 
  3859.68348     2.476620   294.085131    57.296347  8549.000021    88.298708    52.427778     0.326852     0.109230     2.476588  5299.970590     1.613070     0.307060     0.121003 
  3859.83588     2.507509   294.774628    55.519050  8765.345087    87.195186    57.709913     0.319186     0.090250     2.507532  5047.410907     1.736624     0.256034     0.104312 
  3859.98828     2.522537   295.275081    51.226061  8729.771274    88.080834    63.035635     0.238910     0.081147     2.522578  4830.228250     1.807322     0.216543     0.094628 
  3860.14068     2.499454   296.380660    53.079600  7940.764726    95.947410    56.621757     0.226433     0.095187     2.499465  4390.976620     1.808434     0.253519     0.106525 
  3860.29308     2.464785   297.900542    64.010824  7101.097838   105.798643    56.692612     0.296859     0.106325     2.464813  3907.388396     1.817422     0.346520     0.129550 
