#------------------------------------------------------------------------------
#
#   Created by   : las_export
#   Created on   : 2019-11-07 11:27:48
#   Project      : GUDRUN
#   User         : MAAP
#   Interpreters : STAT, AKOLB, *
#
#------------------------------------------------------------------------------
~VERSION INFORMATION
VERS. 2.0 : CWLS Log ASCII Standard - version 2.0
WRAP.  NO : One line per depth step

~WELL INFORMATION
#MNEMONIC   .UNIT                                           VALUE :DESCRIPTION
#------------------------------------------------------------------------------
STRT        .M                                      3853.73988 :START DEPTH
STOP        .M                                      3957.21948 :STOP DEPTH
STEP        .M                                          0.1524 :STEP
NULL        .                                        -999.2500 :NULL VALUE
COMP        .                                                  :COMPANY
WELL        .                                           Well11 :WELL  #15/3-11
FLD         .                                          UNKNOWN :FIELD
LOC         .                                          UNKNOWN :LOCATION
CNTY        .                                          UNKNOWN :COUNTY
STAT        .                                          UNKNOWN :STATE
CTRY        .                                           Norway :COUNTRY
SRVC        .                                          UNKNOWN :SERVICE COMPANY
DATE        .                                          UNKNOWN :LOG DATE
UWI         .                                       NO 15/3-11 :UNIQUE WELL ID
XCOORD      .M                                     4583.300000 :SURFACE X  # 434583.300000
YCOORD      .M                                    20591.500000 :SURFACE Y  # 6520591.500000
LAT         .                                        58.818915 :LATITUDE
LON         .                                         1.867338 :LONGITUDE
ELEV        .M                                         23.0000 :SURFACE ELEV
ELEV_TYPE   .                                               KB :ELEV TYPE

~CURVE INFORMATION
#MNEMONIC   .UNIT          API CODE       : CURVE DESCRIPTION
#------------------------------------------------------------------------------
DEPTH       .M                            : Measured Depth
DEN         .g/cm3         UNKNOWN        : DEN:COMPOSITE:r1:NONE:v1
DTST        .UNKNOWN       UNKNOWN        : DTST:WIRELINE:r1:0001:v1
GR          .UNKNOWN       UNKNOWN        : GR:WIRELINE:r1:0001:v1
LFP_AI      .kPa.s/m       UNKNOWN        : LFP_AI:GeologLFP:rC:NONE:v1
LFP_DT      .us/ft         UNKNOWN        : LFP_DT:GeologLFP:rC:NONE:v1
LFP_GR      .API           UNKNOWN        : LFP_GR:GeologLFP:rC:NONE:v1
LFP_NPHI    .v/v decimal   UNKNOWN        : LFP_NPHI:GeologLFP:rC:NONE:v1
LFP_PHIT    .v/v decimal   UNKNOWN        : LFP_PHIT:GeologLFP:rC:NONE:v1
LFP_RHOB    .g/cm3         UNKNOWN        : LFP_RHOB:GeologLFP:rC:NONE:v1
LFP_SI      .kPa.s/m       UNKNOWN        : LFP_SI:GeologLFP:rC:NONE:v1
LFP_VPVS    .unitless      UNKNOWN        : LFP_VPVS:GeologLFP:rC:NONE:v1
NPHI        .UNKNOWN       UNKNOWN        : NPHI:WIRELINE:r1:0001:v1
PHIT        .v/v decimal   UNKNOWN        : PHIT:CPI:r1:NONE:v1
~A     DEPTH          DEN         DTST           GR       LFP_AI       LFP_DT       LFP_GR     LFP_NPHI     LFP_PHIT     LFP_RHOB       LFP_SI     LFP_VPVS         NPHI         PHIT 
# ...
  3947.61828     2.718483   283.750799    10.470521 14137.472159    58.611229    12.373858     0.029621     0.010000     2.718455  7797.792578     1.813022     0.017395     0.001000 
  3947.77068     2.716040   283.833970     9.932896 15162.479267    54.597576    12.759455     0.026710     0.010000     2.715991  7711.312428     1.966264     0.016711     0.001000 
  3947.92308     2.707544   284.068664    10.215741 15021.532931    54.941500    13.567531     0.026644     0.010000     2.707534  7665.818334     1.959535     0.018312     0.001000 
  3948.07548     2.699704   284.512209    10.918177 13687.051614    60.122946    13.332250     0.030682     0.010000     2.699744  7582.485514     1.805078     0.020111     0.001000 
  3948.22788     2.700208   284.806144    11.088293 12840.848581    64.095524    12.449177     0.032648     0.010000     2.700252  7454.368526     1.722593     0.021706     0.001000 
  3948.38028     2.701301   284.911700    11.976593 12496.785854    65.886667    12.660869     0.035580     0.010000     2.701347  7309.133143     1.709761     0.022603     0.001000 
  3948.53268     2.701366   284.984060    13.770298 12680.584905    64.931440    14.786357     0.035721     0.010000     2.701341  7131.641681     1.778094     0.023107     0.001000 
  3948.68508     2.696597   285.260376    15.709375 12660.345410    64.923668    17.782849     0.036738     0.010000     2.696631  6851.991432     1.847678     0.024135     0.001000 
  3948.83748     2.696279   285.507410    16.487589 11891.110321    69.112421    19.888094     0.038410     0.010000     2.696264  6557.381856     1.813394     0.029366     0.001000 
  3948.98988     2.707343   285.621792    16.869581 11683.328670    70.631040    20.475814     0.047308     0.010000     2.707368  6561.957370     1.780468     0.039292     0.001000 
  3949.14228     2.713385   285.707109    17.974623 11730.533263    70.502922    25.454010     0.058701     0.010000     2.713356  6467.334932     1.813809     0.053136     0.001000 
  3949.29468     2.711185   285.837071    21.135558 12105.376227    68.267776    33.771746     0.074103     0.010000     2.711230  6538.019241     1.851543     0.073616     0.001000 
  3949.44708     2.695130   286.465000    26.926634 12864.866789    63.855014    39.734290     0.097945     0.010000     2.695161  6480.721201     1.985098     0.105941     0.001000 
  3949.59948     2.685413   287.501990    32.094033 12637.253537    64.775094    35.331259     0.135949     0.010000     2.685403  6391.528603     1.977154     0.126950     0.001000 
  3949.75188     2.687224   288.758682    32.222080 11341.798373    72.220075    29.884844     0.145662     0.010000     2.687231  6186.539278     1.833283     0.119305     0.001000 
  3949.90428     2.690540   289.817899    28.094350 10474.304419    78.298800    38.748465     0.126411     0.010000     2.690538  5896.286232     1.776430     0.090315     0.001000 
  3950.05668     2.696153   290.408580    27.251295  9562.457615    85.939232    63.312310     0.090915     0.010000     2.696162  5354.452072     1.785941     0.107957     0.001000 
  3950.20908     2.703616   291.133577    38.806948  9561.797822    86.183040    87.527934     0.144153     0.010000     2.703625  5021.636883     1.904171     0.176783     0.001000 
  3950.36148     2.705655   291.968934    57.602558  9586.181844    86.032676    94.967186     0.223358     0.010000     2.705668  4726.394635     2.028199     0.264216     0.001052 
  3950.51388     2.685148   292.390934    74.092846  8814.189680    92.856391    97.495295     0.316582     0.010056     2.685149  4510.255242     1.954243     0.311478     0.008497 
  3950.66628     2.649677   292.604237    81.302951  8249.446342    97.901432    99.674061     0.333476     0.018028     2.649712  4422.800185     1.865217     0.323038     0.029478 
  3950.81868     2.618395   292.674706    82.822235  8276.378790    96.434058   103.423556     0.341541     0.038243     2.618377  4323.244747     1.914368     0.313739     0.048026 
  3950.97108     2.603644   292.050985    84.128991  9013.925102    88.045754    97.952453     0.320556     0.046311     2.603597  4449.256442     2.025900     0.304597     0.056074 
  3951.12348     2.595843   290.470423    83.250375  9990.947719    79.192351    91.901372     0.319327     0.049931     2.595798  4649.373270     2.148954     0.304273     0.060265 
  3951.27588     2.587985   289.315350    81.182902 10352.167673    76.201558    86.084762     0.319683     0.053595     2.587998  5081.669954     2.037244     0.315280     0.064578 
  3951.42828     2.600093   288.791805    78.524333 11157.228092    71.038608    84.391247     0.337815     0.045750     2.600118  5739.851966     1.943788     0.327423     0.058810 
  3951.58068     2.627119   288.366404    76.229093 12614.338729    63.480834    72.142794     0.345956     0.026526     2.627100  6359.892550     1.983416     0.345657     0.038270 
  3951.73308     2.643692   287.160739    65.793001 13579.772670    59.338159    56.075337     0.370915     0.012957     2.643696  6818.199404     1.991709     0.323778     0.022156 
  3951.88548     2.642682   287.586986    48.135589 13579.747537    59.315156    35.281426     0.317760     0.010000     2.642642  7039.849841     1.928978     0.245172     0.013216 
  3952.03788     2.654348   288.348672    30.273456 13128.177801    61.628221    23.962799     0.221703     0.010000     2.654334  6954.637313     1.887677     0.135991     0.002858 
  3952.19028     2.689225   288.371147    21.022836 12362.915276    66.304620    20.894559     0.103530     0.010000     2.689186  6661.916123     1.855737     0.059879     0.001000 
  3952.34268     2.720726   288.378494    20.105815 11286.758468    73.475403    22.942092     0.055467     0.010000     2.720712  6263.420664     1.802006     0.041867     0.001000 
  3952.49508     2.724362   288.376446    23.487527 10564.441967    78.603241    29.337835     0.057523     0.010000     2.724357  5909.047091     1.787867     0.052092     0.001000 
  3952.64748     2.718975   288.400725    29.210113 10028.588293    82.638634    39.553762     0.073194     0.010000     2.718988  5464.069531     1.835398     0.081220     0.001000 
  3952.79988     2.715601   289.188602    39.085159  9885.903941    83.727994    52.865979     0.111369     0.010000     2.715640  5173.613529     1.910849     0.144415     0.001000 
  3952.95228     2.730067   290.141598    54.033716  9904.386410    84.015937    69.351398     0.191242     0.010000     2.730075  4996.770368     1.982160     0.221732     0.001000 
  3953.10468     2.781699   290.940984    67.445254  9953.987784    85.182105    82.916457     0.266875     0.010000     2.781746  4953.251873     2.009576     0.286546     0.001000 
  3953.25708     2.823209   291.778456    76.857608  9394.113693    91.603733    91.129310     0.324881     0.010000     2.823243  4783.571685     1.963849     0.323422     0.001000 
  3953.40948     2.781852   292.416922    80.745987  8925.057568    95.003740    95.617508     0.347959     0.010000     2.781853  4450.784976     2.005272     0.341794     0.001027 
  3953.56188     2.690730   292.978206    83.553608  8487.849332    96.625124    97.167477     0.363044     0.010235     2.690744  4283.976847     1.981308     0.356037     0.005185 
  3953.71428     2.610999   293.271210    85.333850  8203.695934    97.007880   102.644971     0.376787     0.043073     2.610960  4097.532450     2.002121     0.376625     0.052422 
  3953.86668     2.596836   293.356713    85.129679  8353.814863    94.748646   100.056018     0.402039     0.051319     2.596824  3999.568752     2.088679     0.395342     0.060792 
  3954.01908     2.587930   293.441618    84.723604  8250.004817    95.612439   101.932336     0.416342     0.057246     2.587928  3949.282608     2.088988     0.401537     0.066059 
  3954.17148     2.592175   293.568632    84.749142  8438.776033    93.626983    96.232075     0.417082     0.053443     2.592174  3955.892299     2.133214     0.392081     0.063545 
