#------------------------------------------------------------------------------
#
#   Created by   : las_export
#   Created on   : 2019-11-07 11:27:48
#   Project      : GUDRUN
#   User         : MAAP
#   Interpreters : STAT, AKOLB, *
#
#------------------------------------------------------------------------------
~VERSION INFORMATION
VERS. 2.0 : CWLS Log ASCII Standard - version 2.0
WRAP.  NO : One line per depth step

~WELL INFORMATION
#MNEMONIC   .UNIT                                           VALUE :DESCRIPTION
#------------------------------------------------------------------------------
STRT        .M                                      3853.73988 :START DEPTH
STOP        .M                                      3957.21948 :STOP DEPTH
STEP        .M                                          0.1524 :STEP
NULL        .                                        -999.2500 :NULL VALUE
COMP        .                                                  :COMPANY
WELL        .                                           Well11 :WELL  #15/3-11
FLD         .                                          UNKNOWN :FIELD
LOC         .                                          UNKNOWN :LOCATION
CNTY        .                                          UNKNOWN :COUNTY
STAT        .                                          UNKNOWN :STATE
CTRY        .                                           Norway :COUNTRY
SRVC        .                                          UNKNOWN :SERVICE COMPANY
DATE        .                                          UNKNOWN :LOG DATE
UWI         .                                       NO 15/3-11 :UNIQUE WELL ID
XCOORD      .M                                     4583.300000 :SURFACE X  # 434583.300000
YCOORD      .M                                    20591.500000 :SURFACE Y  # 6520591.500000
LAT         .                                        58.818915 :LATITUDE
LON         .                                         1.867338 :LONGITUDE
ELEV        .M                                         23.0000 :SURFACE ELEV
ELEV_TYPE   .                                               KB :ELEV TYPE

~CURVE INFORMATION
#MNEMONIC   .UNIT          API CODE       : CURVE DESCRIPTION
#------------------------------------------------------------------------------
DEPTH       .M                            : Measured Depth
DEN         .g/cm3         UNKNOWN        : DEN:COMPOSITE:r1:NONE:v1
DTST        .UNKNOWN       UNKNOWN        : DTST:WIRELINE:r1:0001:v1
GR          .UNKNOWN       UNKNOWN        : GR:WIRELINE:r1:0001:v1
LFP_AI      .kPa.s/m       UNKNOWN        : LFP_AI:GeologLFP:rC:NONE:v1
LFP_DT      .us/ft         UNKNOWN        : LFP_DT:GeologLFP:rC:NONE:v1
LFP_GR      .API           UNKNOWN        : LFP_GR:GeologLFP:rC:NONE:v1
LFP_NPHI    .v/v decimal   UNKNOWN        : LFP_NPHI:GeologLFP:rC:NONE:v1
LFP_PHIT    .v/v decimal   UNKNOWN        : LFP_PHIT:GeologLFP:rC:NONE:v1
LFP_RHOB    .g/cm3         UNKNOWN        : LFP_RHOB:GeologLFP:rC:NONE:v1
LFP_SI      .kPa.s/m       UNKNOWN        : LFP_SI:GeologLFP:rC:NONE:v1
LFP_VPVS    .unitless      UNKNOWN        : LFP_VPVS:GeologLFP:rC:NONE:v1
NPHI        .UNKNOWN       UNKNOWN        : NPHI:WIRELINE:r1:0001:v1
PHIT        .v/v decimal   UNKNOWN        : PHIT:CPI:r1:NONE:v1
~A     DEPTH          DEN         DTST           GR       LFP_AI       LFP_DT       LFP_GR     LFP_NPHI     LFP_PHIT     LFP_RHOB       LFP_SI     LFP_VPVS         NPHI         PHIT 
# ...
  3927.50148     2.467093   292.224395    16.275435 10338.584328    72.733495    25.022425     0.089039     0.114047     2.467065  6751.079362     1.531397     0.073913     0.102485 
  3927.65388     2.480216   292.182107    22.086142 10382.593492    72.811243    32.665199     0.088589     0.107730     2.480210  6786.505961     1.529889     0.075965     0.095679 
  3927.80628     2.496564   292.226631    28.497588 10596.657347    71.809441    33.041307     0.092233     0.098762     2.496518  6755.273332     1.568649     0.085724     0.087618 
  3927.95868     2.505379   292.357735    31.215578 10766.722489    70.926857    27.386992     0.106118     0.092293     2.505409  6783.594750     1.587170     0.104402     0.084114 
  3928.11108     2.488197   292.724684    28.232901 10557.965618    71.833289    19.907401     0.127982     0.101623     2.488223  6709.289291     1.573632     0.119621     0.092441 
  3928.26348     2.459691   292.832063    22.061335 10238.959568    73.223108    18.321837     0.138726     0.110521     2.459736  6563.984970     1.559872     0.122772     0.107562 
  3928.41588     2.444385   292.743266    17.021304 10075.471829    73.945342    18.414225     0.136866     0.117939     2.444338  6400.642927     1.574134     0.118575     0.116050 
  3928.56828     2.442387   292.766091    15.839228 10082.863067    73.833527    23.225705     0.131153     0.119325     2.442426  6417.362357     1.571184     0.114854     0.118644 
  3928.72068     2.454629   292.779854    17.788451 10294.795841    72.675762    28.678571     0.128684     0.113986     2.454658  6449.174797     1.596298     0.107990     0.112366 
  3928.87308     2.472861   292.772534    23.294430 10569.981503    71.308168    30.592850     0.118866     0.105012     2.472848  6451.425489     1.638393     0.106538     0.102176 
  3929.02548     2.495336   292.778206    29.603023 10831.264632    70.220943    26.223775     0.122999     0.098358     2.495347  6557.686761     1.651701     0.112251     0.090630 
  3929.17788     2.500146   292.748921    31.818960 10805.023813    70.526690    20.201794     0.129876     0.094319     2.500134  6748.731266     1.601045     0.119782     0.085999 
  3929.33028     2.478377   292.665326    28.011001 10568.385498    71.479512    17.236366     0.137695     0.101698     2.478411  6753.558148     1.564858     0.117034     0.096943 
  3929.48268     2.447041   292.474651    21.587610 10232.501629    72.891656    17.098606     0.128043     0.118076     2.447058  6639.804450     1.541084     0.107135     0.114128 
  3929.63508     2.424794   292.284172    16.332394 10057.363228    73.486007    18.048334     0.117960     0.130344     2.424787  6580.187850     1.528433     0.097365     0.126664 
  3929.78748     2.424050   292.142379    14.706153 10150.633085    72.789969    18.826742     0.108377     0.132175     2.424094  6691.825283     1.516870     0.092101     0.126425 
  3929.93988     2.431016   292.055284    15.067744 10237.848775    72.376835    16.798352     0.105908     0.129444     2.431046  6697.056670     1.528709     0.092339     0.122532 
  3930.09228     2.433306   292.053308    15.948715 10253.528833    72.332445    15.843823     0.107976     0.128444     2.433274  6739.345775     1.521443     0.098145     0.121299 
  3930.24468     2.434078   292.051989    15.721130 10134.760064    73.202948    14.614804     0.116380     0.127840     2.434037  6660.298874     1.521669     0.104897     0.120483 
  3930.39708     2.431017   291.993726    14.732590 10155.976143    72.960216    14.248458     0.121961     0.129085     2.431044  6597.158054     1.539450     0.104365     0.122012 
  3930.54948     2.433398   291.816323    14.049134 10198.029317    72.729112    13.351315     0.117325     0.127465     2.433376  6715.250032     1.518641     0.099065     0.120439 
  3930.70188     2.433211   291.706690    14.012992 10286.375581    72.099518    13.200094     0.111616     0.127475     2.433211  6602.231800     1.558015     0.093888     0.120481 
  3930.85428     2.434848   291.650758    14.137100 10353.202076    71.683691    13.644308     0.106848     0.126481     2.434886  6607.433281     1.566901     0.092083     0.119702 
  3931.00668     2.441619   291.647249    14.138597 10604.652934    70.177763    13.758499     0.106946     0.122170     2.441635  6717.315928     1.578703     0.089470     0.116025 
  3931.15908     2.458324   291.737159    14.354081 10754.207432    69.673566    15.555039     0.102546     0.113140     2.458279  6738.163415     1.596014     0.084967     0.107446 
  3931.31148     2.475765   291.814526    15.375528 10894.979541    69.263367    23.194806     0.097876     0.104548     2.475796  6781.329130     1.606614     0.080013     0.098875 
  3931.46388     2.484833   291.814702    18.529978 10897.630579    69.500180    31.336030     0.092809     0.100140     2.484861  6771.090671     1.609434     0.082051     0.093849 
  3931.61628     2.475408   291.605792    23.314001 10693.980004    70.554599    34.374061     0.099575     0.104688     2.475422  6683.770112     1.599992     0.089670     0.099326 
  3931.76868     2.462550   291.392949    27.361861 10539.432251    71.217351    31.464268     0.107710     0.110454     2.462566  6630.991479     1.589421     0.100147     0.106653 
  3931.92108     2.455654   290.953223    29.173118 10616.642669    70.502783    28.667363     0.119815     0.113104     2.455695  6615.177514     1.604887     0.107079     0.111179 
  3932.07348     2.463389   290.522797    28.360512 11024.586269    68.105980    31.907387     0.123371     0.108806     2.463358  6737.786339     1.636229     0.103924     0.107550 
  3932.22588     2.490000   290.172649    27.224003 11550.709127    65.705427    33.770337     0.115719     0.103090     2.489963  6992.039814     1.651981     0.092438     0.093268 
  3932.37828     2.518094   289.881639    27.595434 11917.365423    64.402264    36.243160     0.101675     0.086104     2.518060  7232.258355     1.647814     0.083201     0.077690 
  3932.53068     2.531287   289.354099    28.892475 11815.968635    65.297567    38.820072     0.095532     0.078339     2.531323  7376.804696     1.601770     0.083449     0.070405 
  3932.68308     2.529387   288.876135    30.647645 11408.143064    67.579075    46.513597     0.100136     0.080927     2.529353  7235.956610     1.576598     0.090835     0.071805 
  3932.83548     2.527690   288.476221    33.387337 11072.090670    69.583832    55.116040     0.109406     0.083495     2.527680  6925.045262     1.598863     0.096121     0.073423 
  3932.98788     2.540402   288.253356    38.251115 10915.388291    70.938313    64.512404     0.111922     0.077271     2.540417  6617.259424     1.649555     0.099353     0.067060 
  3933.14028     2.554712   288.064501    46.475639 10873.761474    71.611865    73.234218     0.115617     0.069936     2.554757  6323.244212     1.719650     0.107425     0.059943 
  3933.29268     2.570392   287.794020    56.246619 10958.179797    71.495880    74.243284     0.126698     0.060418     2.570416  6290.341659     1.742067     0.126232     0.052779 
  3933.44508     2.583445   287.020547    63.878463 11208.033876    70.256459    58.487021     0.150566     0.049565     2.583418  6469.355711     1.732475     0.146032     0.047960 
  3933.59748     2.603866   285.458697    68.478204 11763.645886    67.469135    39.561299     0.167727     0.033498     2.603905  6690.781263     1.758180     0.150638     0.035866 
  3933.74988     2.627276   284.193724    66.455770 12399.447426    64.584509    27.562419     0.163898     0.016934     2.627264  6948.764771     1.784396     0.126113     0.018856 
  3933.90228     2.651936   284.477152    59.801145 13265.704720    60.935880    29.180313     0.125672     0.010000     2.651960  7208.857842     1.840176     0.082931     0.005953 
  3934.05468     2.671016   284.958259    48.029129 14471.126302    56.258177    32.696133     0.079133     0.010000     2.670981  7379.899758     1.960880     0.042659     0.001000 
