#------------------------------------------------------------------------------
#
#   Created by   : las_export
#   Created on   : 2019-11-07 11:27:48
#   Project      : GUDRUN
#   User         : MAAP
#   Interpreters : STAT, AKOLB, *
#
#------------------------------------------------------------------------------
~VERSION INFORMATION
VERS. 2.0 : CWLS Log ASCII Standard - version 2.0
WRAP.  NO : One line per depth step

~WELL INFORMATION
#MNEMONIC   .UNIT                                           VALUE :DESCRIPTION
#------------------------------------------------------------------------------
STRT        .M                                      3853.73988 :START DEPTH
STOP        .M                                      3957.21948 :STOP DEPTH
STEP        .M                                          0.1524 :STEP
NULL        .                                        -999.2500 :NULL VALUE
COMP        .                                                  :COMPANY
WELL        .                                           Well11 :WELL  #15/3-11
FLD         .                                          UNKNOWN :FIELD
LOC         .                                          UNKNOWN :LOCATION
CNTY        .                                          UNKNOWN :COUNTY
STAT        .                                          UNKNOWN :STATE
CTRY        .                                           Norway :COUNTRY
SRVC        .                                          UNKNOWN :SERVICE COMPANY
DATE        .                                          UNKNOWN :LOG DATE
UWI         .                                       NO 15/3-11 :UNIQUE WELL ID
XCOORD      .M                                     4583.300000 :SURFACE X  # 434583.300000
YCOORD      .M                                    20591.500000 :SURFACE Y  # 6520591.500000
LAT         .                                        58.818915 :LATITUDE
LON         .                                         1.867338 :LONGITUDE
ELEV        .M                                         23.0000 :SURFACE ELEV
ELEV_TYPE   .                                               KB :ELEV TYPE

~CURVE INFORMATION
#MNEMONIC   .UNIT          API CODE       : CURVE DESCRIPTION
#------------------------------------------------------------------------------
DEPTH       .M                            : Measured Depth
DEN         .g/cm3         UNKNOWN        : DEN:COMPOSITE:r1:NONE:v1
DTST        .UNKNOWN       UNKNOWN        : DTST:WIRELINE:r1:0001:v1
GR          .UNKNOWN       UNKNOWN        : GR:WIRELINE:r1:0001:v1
LFP_AI      .kPa.s/m       UNKNOWN        : LFP_AI:GeologLFP:rC:NONE:v1
LFP_DT      .us/ft         UNKNOWN        : LFP_DT:GeologLFP:rC:NONE:v1
LFP_GR      .API           UNKNOWN        : LFP_GR:GeologLFP:rC:NONE:v1
LFP_NPHI    .v/v decimal   UNKNOWN        : LFP_NPHI:GeologLFP:rC:NONE:v1
LFP_PHIT    .v/v decimal   UNKNOWN        : LFP_PHIT:GeologLFP:rC:NONE:v1
LFP_RHOB    .g/cm3         UNKNOWN        : LFP_RHOB:GeologLFP:rC:NONE:v1
LFP_SI      .kPa.s/m       UNKNOWN        : LFP_SI:GeologLFP:rC:NONE:v1
LFP_VPVS    .unitless      UNKNOWN        : LFP_VPVS:GeologLFP:rC:NONE:v1
NPHI        .UNKNOWN       UNKNOWN        : NPHI:WIRELINE:r1:0001:v1
PHIT        .v/v decimal   UNKNOWN        : PHIT:CPI:r1:NONE:v1
~A     DEPTH          DEN         DTST           GR       LFP_AI       LFP_DT       LFP_GR     LFP_NPHI     LFP_PHIT     LFP_RHOB       LFP_SI     LFP_VPVS         NPHI         PHIT 
# ...
  3867.15108     2.537135   289.406442    50.864302  9907.402801    78.055298    61.643839     0.190903     0.073285     2.537151  6207.665149     1.595995     0.172051     0.074833 
  3867.30348     2.527987   289.637271    46.545841 10066.993673    76.540942    62.140255     0.184228     0.079018     2.528008  6205.174120     1.622361     0.164821     0.079024 
  3867.45588     2.526293   289.688484    45.778864  9994.740682    77.043985    64.702695     0.176667     0.080251     2.526338  6045.573802     1.653233     0.168047     0.079254 
  3867.60828     2.539394   289.672259    48.617872 10375.807803    74.595919    61.070108     0.186991     0.071962     2.539348  6037.417394     1.718585     0.175219     0.073453 
  3867.76068     2.552694   289.640279    53.363460 10376.459392    74.983647    59.705260     0.192162     0.063614     2.552691  5973.292978     1.737140     0.193152     0.073585 
  3867.91308     2.566034   289.566358    57.987161 10120.356671    77.283731    58.255775     0.218529     0.055235     2.566071  5929.396201     1.706814     0.216032     0.068362 
  3868.06548     2.584872   289.517111    59.381816 10080.296931    78.160705    62.681669     0.239093     0.043874     2.584902  6020.796705     1.674248     0.235843     0.059606 
  3868.21788     2.594914   289.502585    56.736852 10407.980801    75.991219    66.250228     0.258336     0.037962     2.594865  6004.119185     1.733474     0.242175     0.055253 
  3868.37028     2.596859   289.428681    52.303022 10373.558156    76.302496    71.934147     0.256053     0.037147     2.596860  6061.067743     1.711515     0.238331     0.054458 
  3868.52268     2.591218   289.368936    48.006348 10035.970737    78.697080    72.332130     0.251237     0.040722     2.591199  6143.851597     1.633511     0.227961     0.057229 
  3868.67508     2.593759   289.319290    43.962965  9758.558509    81.012389    68.990251     0.237169     0.038959     2.593711  6274.443231     1.555295     0.222156     0.054616 
  3868.82748     2.601922   289.331788    39.823262  9645.279986    82.222351    63.152804     0.236883     0.033499     2.601888  6407.464548     1.505320     0.215518     0.049905 
  3868.97988     2.590771   289.596748    37.494278  9818.325759    80.429074    53.751556     0.225902     0.039748     2.590779  6387.584013     1.537095     0.203231     0.052996 
  3869.13228     2.558504   289.828341    37.467553 10169.159015    76.685641    49.107175     0.212896     0.059475     2.558495  6389.156466     1.591629     0.192841     0.070564 
  3869.28468     2.516989   290.017565    38.032726 10079.803650    76.110757    43.388066     0.204113     0.084847     2.516981  6311.540762     1.597041     0.184105     0.084545 
  3869.43708     2.501434   290.309258    38.235397  9724.273400    78.405458    44.679113     0.195446     0.094611     2.501431  6139.139836     1.583981     0.184909     0.093436 
  3869.58948     2.506296   290.977124    38.821939  9754.369065    78.314435    43.537581     0.202518     0.091548     2.506257  6069.904802     1.607008     0.186161     0.090433 
  3869.74188     2.519656   291.890499    39.204744  9652.789045    79.563091    40.770759     0.199963     0.083019     2.519693  6125.677833     1.575791     0.180239     0.082196 
  3869.89428     2.513359   292.908643    37.477012  9874.919561    77.576563    39.938713     0.191742     0.086923     2.513328  6110.443759     1.616072     0.171212     0.085387 
  3870.04668     2.493421   293.459511    34.305263  9832.280981    77.294568    42.201767     0.182207     0.099392     2.493373  6095.153928     1.613130     0.173063     0.096865 
  3870.19908     2.453986   293.657459    32.138005  9560.945935    78.232163    44.404181     0.191650     0.109682     2.453973  5932.427079     1.611641     0.182546     0.117890 
  3870.35148     2.395804   293.875143    31.347472  9212.327454    79.268809    42.493069     0.201262     0.140013     2.395822  5727.440024     1.608465     0.189333     0.148645 
  3870.50388     2.354511   294.258171    29.657913  8880.095133    80.815214    38.226763     0.206039     0.161258     2.354484  5429.904038     1.635418     0.179325     0.170398 
  3870.65628     2.356339   294.576395    27.448921  8898.305212    80.714175    35.832090     0.186199     0.159614     2.356360  5267.561186     1.689266     0.183325     0.168018 
  3870.80868     2.404009   294.700013    29.648318  8841.617734    82.875632    32.093146     0.206112     0.134777     2.404050  5305.738269     1.666436     0.232332     0.142516 
  3870.96108     2.447459   294.573798    41.144932  8819.962233    84.582488    31.403866     0.274602     0.112613     2.447488  5143.826945     1.714673     0.297263     0.118547 
  3871.11348     2.483930   294.125716    57.031739  8356.451782    90.600869    36.610881     0.337526     0.105032     2.483920  4846.574227     1.724206     0.351599     0.100394 
  3871.26588     2.530545   293.677106    67.857094  8221.930157    93.811610    53.317527     0.386386     0.077428     2.530556  4680.583089     1.756616     0.366476     0.088946 
  3871.41828     2.592912   293.008585    71.210980  8308.819088    95.116711    71.555674     0.378676     0.040231     2.592873  4556.919437     1.823348     0.378002     0.058441 
  3871.57068     2.622387   292.503281    73.417605  8312.731613    96.153689    83.562015     0.402995     0.022922     2.622371  4454.897533     1.865974     0.408258     0.045423 
  3871.72308     2.592250   292.336438    76.851934  8140.442364    97.060155    85.930662     0.437153     0.041863     2.592226  4405.493801     1.847806     0.431741     0.063543 
  3871.87548     2.543103   294.827579    76.382279  8242.196933    94.045290    85.106125     0.453541     0.072337     2.543084  4575.971441     1.801192     0.407459     0.092652 
  3872.02788     2.515614   297.998432    68.311235  8514.836552    90.050104    85.315807     0.402109     0.089446     2.515610  4742.152915     1.795565     0.326077     0.108889 
  3872.18028     2.517526   300.205970    58.682769  8747.656538    87.720794    75.674847     0.300834     0.087494     2.517533  4877.901463     1.793341     0.247851     0.102583 
  3872.33268     2.506578   300.981243    51.967059  8407.737352    90.876141    67.843306     0.237505     0.093593     2.506555  4984.305740     1.686798     0.226173     0.103246 
  3872.48508     2.418277   301.235971    49.259090  7382.828720    99.848823    55.794914     0.243409     0.132245     2.418321  4589.560149     1.608823     0.312224     0.137176 
  3872.63748     2.218350   305.196653    48.811025  6274.617022   107.761845    54.072465     0.383321     0.010000     2.218362  3596.465891     1.744753     0.390541     0.000100 
  3872.78988     2.071758   310.924068    50.607156  5752.743991   109.771885    52.498056     0.420760     0.010000     2.071799  3122.996278     1.842065     0.411363     0.000100 
  3872.94228     2.095048   322.836838    56.172013  5989.700893   106.610761    54.263798     0.430457     0.011485     2.095007  3102.832447     1.930714     0.376158     0.000100 
  3873.09468     2.255403   333.454972    60.897701  6573.062805   104.583990    59.969085     0.365460     0.219168     2.255362  3796.455079     1.731425     0.400450     0.000100 
  3873.24708     2.253856   337.232415    59.965979  6407.596284   107.234935    64.705245     0.449284     0.247456     2.253880  4011.154492     1.597670     0.497998     0.000100 
  3873.39948     1.965963   338.518060    52.203162  4970.953942   120.564273    66.764158     0.555969     0.010000     1.965974  2901.691787     1.713455     0.572617     0.000100 
  3873.55188     1.638977   339.101560    44.913129  3801.098826   131.423364    58.879065     0.609138     0.010000     1.638951  2032.561382     1.870364     0.604971     0.000100 
  3873.70428     1.581384   334.132312    43.778401  3646.796198   132.196535    51.818988     0.627565     0.010000     1.581416  1726.043819     2.112614     0.600219     0.000100 
