#------------------------------------------------------------------------------
#
#   Created by   : las_export
#   Created on   : 2019-11-07 11:27:48
#   Project      : GUDRUN
#   User         : MAAP
#   Interpreters : STAT, AKOLB, *
#
#------------------------------------------------------------------------------
~VERSION INFORMATION
VERS. 2.0 : CWLS Log ASCII Standard - version 2.0
WRAP.  NO : One line per depth step

~WELL INFORMATION
#MNEMONIC   .UNIT                                           VALUE :DESCRIPTION
#------------------------------------------------------------------------------
STRT        .M                                      3853.73988 :START DEPTH
STOP        .M                                      3957.21948 :STOP DEPTH
STEP        .M                                          0.1524 :STEP
NULL        .                                        -999.2500 :NULL VALUE
COMP        .                                                  :COMPANY
WELL        .                                           Well11 :WELL  #15/3-11
FLD         .                                          UNKNOWN :FIELD
LOC         .                                          UNKNOWN :LOCATION
CNTY        .                                          UNKNOWN :COUNTY
STAT        .                                          UNKNOWN :STATE
CTRY        .                                           Norway :COUNTRY
SRVC        .                                          UNKNOWN :SERVICE COMPANY
DATE        .                                          UNKNOWN :LOG DATE
UWI         .                                       NO 15/3-11 :UNIQUE WELL ID
XCOORD      .M                                     4583.300000 :SURFACE X  # 434583.300000
YCOORD      .M                                    20591.500000 :SURFACE Y  # 6520591.500000
LAT         .                                        58.818915 :LATITUDE
LON         .                                         1.867338 :LONGITUDE
ELEV        .M                                         23.0000 :SURFACE ELEV
ELEV_TYPE   .                                               KB :ELEV TYPE

~CURVE INFORMATION
#MNEMONIC   .UNIT          API CODE       : CURVE DESCRIPTION
#------------------------------------------------------------------------------
DEPTH       .M                            : Measured Depth
DEN         .g/cm3         UNKNOWN        : DEN:COMPOSITE:r1:NONE:v1
DTST        .UNKNOWN       UNKNOWN        : DTST:WIRELINE:r1:0001:v1
GR          .UNKNOWN       UNKNOWN        : GR:WIRELINE:r1:0001:v1
LFP_AI      .kPa.s/m       UNKNOWN        : LFP_AI:GeologLFP:rC:NONE:v1
LFP_DT      .us/ft         UNKNOWN        : LFP_DT:GeologLFP:rC:NONE:v1
LFP_GR      .API           UNKNOWN        : LFP_GR:GeologLFP:rC:NONE:v1
LFP_NPHI    .v/v decimal   UNKNOWN        : LFP_NPHI:GeologLFP:rC:NONE:v1
LFP_PHIT    .v/v decimal   UNKNOWN        : LFP_PHIT:GeologLFP:rC:NONE:v1
LFP_RHOB    .g/cm3         UNKNOWN        : LFP_RHOB:GeologLFP:rC:NONE:v1
LFP_SI      .kPa.s/m       UNKNOWN        : LFP_SI:GeologLFP:rC:NONE:v1
LFP_VPVS    .unitless      UNKNOWN        : LFP_VPVS:GeologLFP:rC:NONE:v1
NPHI        .UNKNOWN       UNKNOWN        : NPHI:WIRELINE:r1:0001:v1
PHIT        .v/v decimal   UNKNOWN        : PHIT:CPI:r1:NONE:v1
~A     DEPTH          DEN         DTST           GR       LFP_AI       LFP_DT       LFP_GR     LFP_NPHI     LFP_PHIT     LFP_RHOB       LFP_SI     LFP_VPVS         NPHI         PHIT 
# ...
  3914.09028     2.656004   291.436659    80.444741  8735.040488    92.678847    91.542592     0.362229     0.010000     2.655969  4597.296783     1.900033     0.334124     0.025779 
  3914.24268     2.670589   291.602599    79.720018  8333.993572    97.674071    99.187744     0.340884     0.010000     2.670622  4434.440662     1.879393     0.322861     0.017102 
  3914.39508     2.668919   291.978463    80.652014  7998.851011   101.699778   101.244216     0.336358     0.010055     2.668882  4178.859424     1.914118     0.332116     0.018132 
  3914.54748     2.643432   292.307762    84.197741  7704.663254   104.575869   103.810161     0.354758     0.017815     2.643441  4090.020922     1.883788     0.364601     0.033198 
  3914.69988     2.619703   292.471872    87.543440  7779.525643   102.643846   106.610141     0.396600     0.033011     2.619656  4264.386796     1.824391     0.394719     0.047284 
  3914.85228     2.591856   293.017252    87.609257  8499.331716    92.953276   102.172142     0.418960     0.049639     2.591811  4890.179981     1.738044     0.412372     0.063773 
  3915.00468     2.543257   293.710294    82.390795  9315.435886    83.215978    84.321182     0.433429     0.077032     2.543264  5377.319425     1.732374     0.392780     0.092448 
  3915.15708     2.466747   294.254809    69.435719  9522.591026    78.956721    53.073983     0.391042     0.111594     2.466767  5656.733864     1.683418     0.329510     0.126970 
  3915.30948     2.389263   294.451481    51.662899  9135.590244    79.714820    30.709023     0.313899     0.150223     2.389245  5743.981058     1.590467     0.240918     0.150148 
  3915.46188     2.356078   294.302391    34.800168  8998.167423    79.809254    19.964424     0.217260     0.167140     2.356084  5809.068401     1.548985     0.168833     0.165012 
  3915.61428     2.353263   293.556493    23.069544  9202.214840    77.946459    18.861058     0.161210     0.169185     2.353245  5845.198375     1.574317     0.143950     0.166233 
  3915.76668     2.390618   292.699104    17.568182  9723.076216    74.947116    20.623374     0.157126     0.150052     2.390655  5888.537930     1.651164     0.151405     0.146238 
  3915.91908     2.477915   291.453899    15.881355 10878.656773    69.431099    22.693953     0.172242     0.105709     2.477897  6005.330511     1.811445     0.152022     0.099035 
  3916.07148     2.606210   290.543040    15.767803 12365.039459    64.247204    26.719198     0.163152     0.029579     2.606205  6420.987916     1.925709     0.125058     0.030154 
  3916.22388     2.677562   289.409393    18.303638 13749.394261    59.358540    28.968144     0.124319     0.010000     2.677522  7074.633680     1.943458     0.073704     0.001000 
  3916.37628     2.686007   287.419489    22.670209 14889.324730    54.984910    30.676571     0.064595     0.010000     2.685961  7468.594316     1.993608     0.029379     0.001000 
  3916.52868     2.658981   285.840505    27.452092 15349.154199    52.800643    31.891094     0.025269     0.010000     2.658939  7874.960903     1.949128     0.011274     0.001000 
  3916.68108     2.656326   284.819131    28.646034 15468.394871    52.342550    29.583650     0.015244     0.010000     2.656349  8208.955153     1.884347     0.007393     0.001000 
  3916.83348     2.660010   284.080642    26.487423 15450.692999    52.474109    30.424913     0.013443     0.010000     2.659969  8489.835284     1.819906     0.006291     0.001000 
  3916.98588     2.661472   283.363512    23.583499 15809.667962    51.310648    32.799842     0.012351     0.010000     2.661425  8687.809650     1.819765     0.004888     0.001000 
  3917.13828     2.671523   283.144747    21.729741 15538.273037    52.405243    38.548697     0.010200     0.010000     2.671494  8883.940027     1.749040     0.003091     0.001000 
  3917.29068     2.674711   283.683649    21.278907 14751.251201    55.268584    39.540325     0.008168     0.010000     2.674692  8334.663920     1.769858     0.001803     0.001000 
  3917.44308     2.676239   284.196532    21.648830 13657.468673    59.728388    37.572111     0.006935     0.010000     2.676276  8240.982818     1.657257     0.002223     0.001000 
  3917.59548     2.667642   284.793300    22.686782 13080.140430    62.167214    37.399455     0.008586     0.010000     2.667670  8116.572009     1.611510     0.005667     0.001000 
  3917.74788     2.659324   285.744845    25.260590 11895.949277    68.140177    39.038700     0.014337     0.010030     2.659325  7729.360888     1.539050     0.015882     0.001080 
  3917.90028     2.634420   286.494035    31.511964 11018.672911    72.873328    42.690633     0.033903     0.014421     2.634408  7252.689338     1.519278     0.043240     0.012362 
  3918.05268     2.595112   287.312343    44.062027 10863.567141    72.810354    48.526083     0.072579     0.039732     2.595073  6854.758166     1.584831     0.079326     0.035822 
  3918.20508     2.568907   288.017243    58.518656 10602.406243    73.851982    60.483138     0.108560     0.057816     2.568926  6557.287398     1.616896     0.113248     0.052136 
  3918.35748     2.570036   288.709142    67.883803 10685.880677    73.307206    74.015345     0.141036     0.059231     2.570052  6436.522991     1.660194     0.135543     0.054124 
  3918.50988     2.589012   289.261308    68.982108 10699.139893    73.756536    84.357393     0.156603     0.049093     2.589011  6423.663459     1.665617     0.157004     0.045648 
  3918.66228     2.590664   289.794471    63.013488 10593.098610    74.543787    87.872596     0.181978     0.048607     2.590705  6753.111137     1.568625     0.172587     0.051430 
  3918.81468     2.585515   290.405532    54.974830 10815.853184    72.860823    83.648342     0.191041     0.051213     2.585469  6914.220282     1.564290     0.170482     0.055090 
  3918.96708     2.573503   290.818986    45.884612 10917.347851    71.848880    74.083895     0.181440     0.057175     2.573474  6987.867941     1.562328     0.152740     0.055151 
  3919.11948     2.559683   291.363915    38.696085 10594.228572    73.642658    56.974087     0.158262     0.063074     2.559668  6998.663436     1.513755     0.128724     0.060699 
  3919.27188     2.529157   291.841478    35.180417 10399.209674    74.129776    43.558692     0.133715     0.079904     2.529164  6784.596818     1.532768     0.117312     0.074371 
  3919.42428     2.494978   292.270589    36.091124 10126.920961    75.094004    37.978867     0.131113     0.100171     2.494982  6600.122061     1.534357     0.119119     0.091765 
  3919.57668     2.463824   292.576506    38.595463  9972.564394    75.303705    40.290177     0.135894     0.110412     2.463813  6427.008347     1.551670     0.121885     0.108212 
  3919.72908     2.439295   292.816189    40.065580 10065.493413    73.867072    48.793946     0.137312     0.125167     2.439317  6311.021308     1.594905     0.119618     0.120940 
  3919.88148     2.438688   293.123529    38.213952 10374.057499    71.652134    50.160805     0.132508     0.126121     2.438714  6426.278466     1.614321     0.107338     0.120858 
  3920.03388     2.451171   293.421058    36.505725 10660.470461    70.082131    50.411482     0.115321     0.119673     2.451144  6652.725791     1.602425     0.098121     0.113097 
  3920.18628     2.475109   293.583821    37.848091 10697.217984    70.524874    42.395734     0.111301     0.105670     2.475110  6792.310002     1.574901     0.101312     0.100386 
  3920.33868     2.490416   293.642095    40.274096 10362.604584    73.250937    43.024564     0.119432     0.103928     2.490377  6756.484574     1.533732     0.118128     0.093153 
  3920.49108     2.492621   293.680570    43.108503 10104.746871    75.186935    43.746756     0.141975     0.102636     2.492577  6516.615258     1.550613     0.137391     0.093762 
  3920.64348     2.481380   293.621843    44.611843  9707.655935    77.909155    47.720997     0.159112     0.103474     2.481348  6256.351734     1.551662     0.151033     0.100864 
