#------------------------------------------------------------------------------
#
#   Created by   : las_export
#   Created on   : 2019-11-07 11:28:03
#   Project      : GUDRUN
#   User         : MAAP
#   Interpreters : STAT, AKOLB, *
#
#------------------------------------------------------------------------------
~VERSION INFORMATION
VERS. 2.0 : CWLS Log ASCII Standard - version 2.0
WRAP.  NO : One line per depth step

~WELL INFORMATION
#MNEMONIC   .UNIT                                           VALUE :DESCRIPTION
#------------------------------------------------------------------------------
STRT        .M                                       3933.9015 :START DEPTH
STOP        .M                                       4023.0555 :STOP DEPTH
STEP        .M                                          0.1524 :STEP
NULL        .                                        -999.2500 :NULL VALUE
COMP        .                                                  :COMPANY
WELL        .                                            Well5 :WELL  #15/3-5
FLD         .                                           GUDRUN :FIELD
LOC         .                                          UNKNOWN :LOCATION
CNTY        .                                          UNKNOWN :COUNTY
STAT        .                                          UNKNOWN :STATE
CTRY        .                                           Norway :COUNTRY
SRVC        .                                          UNKNOWN :SERVICE COMPANY
DATE        .                                          UNKNOWN :LOG DATE
UWI         .                                        NO 15/3-5 :UNIQUE WELL ID
XCOORD      .M                                     3105.221162 :SURFACE X  #433105.221162
YCOORD      .M                                    17057.344558 :SURFACE Y  #6517057.344558
LAT         .                                        58.786956 :LATITUDE
LON         .                                         1.842808 :LONGITUDE
ELEV        .M                                         25.0000 :SURFACE ELEV
ELEV_TYPE   .                                               KB :ELEV TYPE

~CURVE INFORMATION
#MNEMONIC   .UNIT          API CODE       : CURVE DESCRIPTION
#------------------------------------------------------------------------------
DEPTH       .M                            : Measured Depth
DEN         .g/cm3         UNKNOWN        : DEN:COMPOSITE:rC:NONE:v1
GR          .API           UNKNOWN        : GR:CPI:rC:NONE:v1
LFP_AI      .kg/m2.s       UNKNOWN        : LFP_AI:GeologLFP:r1:0001:v1
LFP_PHIT    .v/v decimal   UNKNOWN        : LFP_PHIT:GeologLFP:rC:NONE:v1
LFP_SI      .kPa.s/m       UNKNOWN        : LFP_SI:GeologLFP:r1:0001:v1
LFP_VPVS    .unitless      UNKNOWN        : LFP_VPVS:GeologLFP:r1:0001:v1
NPHI        .v/v decimal   UNKNOWN        : NPHI:CPI:rC:NONE:v1
PHIT        .v/v decimal   UNKNOWN        : PHIT:CPI:r2:0001:v1
RHOB        .g/cm3         UNKNOWN        : RHOB:CPI:rC:NONE:v1
~A     DEPTH          DEN           GR       LFP_AI     LFP_PHIT       LFP_SI     LFP_VPVS         NPHI         PHIT         RHOB 
# ...
  3943.35030     2.471941    43.145856  9314.825258     0.128605  5126.027592     1.817206     0.259515     0.133286     2.471970 
  3943.50270     2.507993    44.798927  9468.089259     0.110840  5203.699754     1.819523     0.253015     0.111806     2.507965 
  3943.65510     2.541354    52.721124  9798.395359     0.090585  5357.742045     1.828798     0.260710     0.091921     2.541240 
  3943.80750     2.510211    58.170979  9967.612483     0.109429  5452.437443     1.828050     0.281351     0.110422     2.510267 
  3943.95990     2.493495    60.872748  9780.733107     0.119646  5291.161660     1.848462     0.304107     0.120452     2.493509 
  3944.11230     2.498123    58.735044  9394.252481     0.116794  5012.937278     1.873959     0.332636     0.117652     2.498160 
  3944.26470     2.529316    58.950664  9220.153435     0.097900  4857.369045     1.898185     0.356512     0.099103     2.529188 
  3944.41710     2.523024    55.098310  9119.229882     0.101643  4820.564646     1.891801     0.347090     0.102777     2.523089 
  3944.56950     2.517654    49.761741  9330.737972     0.104936  5040.355768     1.851259     0.313254     0.106011     2.517614 
  3944.72190     2.524818    44.502521  9842.782074     0.100571  5488.148758     1.793453     0.280001     0.101726     2.524820 
  3944.87430     2.535345    45.828932 10215.422224     0.094170  5758.016839     1.774158     0.266196     0.095441     2.535315 
  3945.02670     2.543054    50.178310 10100.277604     0.089471  5617.206750     1.798072     0.269336     0.090828     2.543011 
  3945.17910     2.548923    54.210529  9904.836504     0.085884  5420.247544     1.827351     0.272238     0.087307     2.548929 
  3945.33150     2.564095    55.529104  9740.898302     0.076646  5270.437544     1.848259     0.269290     0.078237     2.564151 
  3945.48390     2.590276    53.816890  9951.235127     0.060700  5433.271195     1.831608     0.262209     0.062582     2.590272 
  3945.63630     2.627553    51.995171 10515.217879     0.038004  5860.921670     1.794149     0.254298     0.040293     2.627430 
  3945.78870     2.591375    48.812003 10470.905383     0.010000  5903.620940     1.773531     0.254214     0.010000     2.591164 
  3945.94110     2.417931    48.758694  9593.674504     0.010000  5370.853121     1.786188     0.270802     0.010000     2.418041 
  3946.09350     2.233161    46.390964  8355.764918     0.010000  4585.292108     1.822251     0.304522     0.010000     2.233264 
  3946.24590     2.111795    46.421724  7338.262489     0.010000  3894.895629     1.884048     0.341259     0.010000     2.111910 
  3946.39830     2.065442    45.628146  6715.135377     0.010000  3453.099800     1.944635     0.383718     0.010000     2.065512 
  3946.55070     2.071895    45.693701  6399.158119     0.010000  3199.560522     2.000031     0.408253     0.010000     2.071984 
  3946.70310     2.115393    41.359981  6364.340727     0.010000  3162.351756     2.012630     0.421504     0.010000     2.115455 
  3946.85550     2.195387    37.477865  6680.442906     0.010000  3367.950404     1.983687     0.407702     0.010000     2.195394 
  3947.00790     2.295164    37.414059  7289.595362     0.010000  3762.945966     1.937296     0.398152     0.010000     2.295160 
  3947.16030     2.377393    39.559873  7950.773490     0.010000  4196.655996     1.894618     0.401864     0.010000     2.377294 
  3947.31270     2.425694    41.658368  8490.678490     0.010000  4562.530138     1.860950     0.425254     0.010000     2.425510 
  3947.46510     2.378935    41.038306  8510.791650     0.010000  4624.093253     1.840513     0.444489     0.010000     2.378897 
  3947.61750     2.274354    40.633041  8069.259106     0.010000  4370.779567     1.846057     0.450218     0.010000     2.274318 
  3947.76990     2.129079    37.780878  6957.642934     0.010000  3642.020362     1.910290     0.445533     0.010000     2.129107 
  3947.92230     1.978219    34.592549  5934.311709     0.010000  2984.752635     1.988097     0.447148     0.010000     1.978229 
  3948.07470     1.838401    30.539055  5259.066376     0.010000  2593.497198     2.027704     0.447779     0.010000     1.838574 
  3948.22710     1.773628    28.959886  4882.640639     0.010000  2358.476712     2.070223     0.433970     0.010000     1.773723 
  3948.37950     1.785653    30.468919  4906.490784     0.010000  2359.250556     2.079692     0.413974     0.010000     1.785731 
  3948.53190     1.853169    33.951682  5164.991360     0.010000  2487.533055     2.076331     0.401643     0.010000     1.853097 
  3948.68430     1.903217    35.248483  5278.564097     0.010000  2526.885528     2.089014     0.396581     0.010000     1.903146 
  3948.83670     1.926713    34.485412  5308.519688     0.010000  2534.448887     2.094594     0.392903     0.010000     1.926791 
  3948.98910     1.973916    34.599327  5449.493916     0.010000  2604.594701     2.092296     0.386326     0.010000     1.973965 
  3949.14150     2.059060    38.093843  5759.197935     0.010000  2755.037836     2.090516     0.384408     0.010000     2.059074 
  3949.29390     2.148433    43.051811  6080.614306     0.010000  2899.852789     2.096964     0.382339     0.010000     2.148410 
  3949.44630     2.205048    46.380967  6380.417421     0.010000  3064.139653     2.082334     0.390863     0.010000     2.205058 
  3949.59870     2.234722    48.383819  6442.385118     0.010000  3073.562103     2.096075     0.395590     0.010000     2.234792 
  3949.75110     2.282152    51.773110  6705.552815     0.010000  3214.860355     2.085839     0.389141     0.010000     2.282075 
  3949.90350     2.320776    56.963332  7077.812448     0.010000  3434.434225     2.060901     0.373459     0.010000     2.320770 
  3950.05590     2.356689    58.588825  7480.499663     0.010000  3702.885468     2.020200     0.374739     0.010000     2.356642 
  3950.20830     2.378440    57.943897  7819.497258     0.010000  3950.687099     1.979249     0.390509     0.010000     2.378373 
  3950.36070     2.364187    56.024019  7875.225940     0.010000  4020.887429     1.958557     0.408004     0.010000     2.364101 
  3950.51310     2.312889    52.757344  7444.515877     0.010000  3755.916775     1.981983     0.413508     0.010000     2.312881 
  3950.66550     2.251684    49.103953  6940.542799     0.010000  3443.045446     2.015777     0.417426     0.010000     2.251667 
  3950.81790     2.183176    46.922622  6730.895820     0.010000  3354.083179     2.006654     0.441520     0.010000     2.183064 
  3950.97030     2.061615    49.351210  6085.074065     0.010000  2940.142610     2.069567     0.484800     0.010000     2.061764 
  3951.12270     1.991670    51.017448  5577.206458     0.010000  2608.812096     2.137824     0.516002     0.010000     1.991775 
  3951.27510     2.030270    51.648013  5668.720355     0.010000  2639.851237     2.147508     0.498467     0.010000     2.030457 
  3951.42750     2.214604    53.226707  6420.843377     0.010000  3043.625062     2.109831     0.426078     0.010000     2.214466 
  3951.57990     2.403043    59.930430  7529.762248     0.010000  3690.878228     2.040396     0.338475     0.010000     2.402897 
  3951.73230     2.504443    65.482468  8988.282175     0.010000  4691.724830     1.915893     0.267129     0.010000     2.504343 
  3951.88470     2.526555    67.170530 10077.926550     0.010159  5503.416957     1.831268     0.221827     0.010163     2.526677 
  3952.03710     2.566525    64.969899 10571.626620     0.075206  5814.005956     1.818249     0.192863     0.076822     2.566454 
  3952.18950     2.594299    62.655576 10259.431101     0.058282  5580.769069     1.838342     0.191798     0.060207     2.594299 
  3952.34190     2.593932    63.341021  9579.219895     0.058491  5051.775019     1.896204     0.237454     0.060413     2.593887 
  3952.49430     2.587096    60.273778  9421.123766     0.062649  4964.217291     1.897823     0.318171     0.064495     2.587092 
  3952.64670     2.582923    55.322811  9126.652812     0.065188  4785.912364     1.907016     0.379494     0.066988     2.582900 
