#------------------------------------------------------------------------------
#
#   Created by   : las_export
#   Created on   : 2019-11-07 11:28:03
#   Project      : GUDRUN
#   User         : MAAP
#   Interpreters : STAT, AKOLB, *
#
#------------------------------------------------------------------------------
~VERSION INFORMATION
VERS. 2.0 : CWLS Log ASCII Standard - version 2.0
WRAP.  NO : One line per depth step

~WELL INFORMATION
#MNEMONIC   .UNIT                                           VALUE :DESCRIPTION
#------------------------------------------------------------------------------
STRT        .M                                       3933.9015 :START DEPTH
STOP        .M                                       4023.0555 :STOP DEPTH
STEP        .M                                          0.1524 :STEP
NULL        .                                        -999.2500 :NULL VALUE
COMP        .                                                  :COMPANY
WELL        .                                            Well5 :WELL  #15/3-5
FLD         .                                           GUDRUN :FIELD
LOC         .                                          UNKNOWN :LOCATION
CNTY        .                                          UNKNOWN :COUNTY
STAT        .                                          UNKNOWN :STATE
CTRY        .                                           Norway :COUNTRY
SRVC        .                                          UNKNOWN :SERVICE COMPANY
DATE        .                                          UNKNOWN :LOG DATE
UWI         .                                        NO 15/3-5 :UNIQUE WELL ID
XCOORD      .M                                     3105.221162 :SURFACE X  #433105.221162
YCOORD      .M                                    17057.344558 :SURFACE Y  #6517057.344558
LAT         .                                        58.786956 :LATITUDE
LON         .                                         1.842808 :LONGITUDE
ELEV        .M                                         25.0000 :SURFACE ELEV
ELEV_TYPE   .                                               KB :ELEV TYPE

~CURVE INFORMATION
#MNEMONIC   .UNIT          API CODE       : CURVE DESCRIPTION
#------------------------------------------------------------------------------
DEPTH       .M                            : Measured Depth
DEN         .g/cm3         UNKNOWN        : DEN:COMPOSITE:rC:NONE:v1
GR          .API           UNKNOWN        : GR:CPI:rC:NONE:v1
LFP_AI      .kg/m2.s       UNKNOWN        : LFP_AI:GeologLFP:r1:0001:v1
LFP_PHIT    .v/v decimal   UNKNOWN        : LFP_PHIT:GeologLFP:rC:NONE:v1
LFP_SI      .kPa.s/m       UNKNOWN        : LFP_SI:GeologLFP:r1:0001:v1
LFP_VPVS    .unitless      UNKNOWN        : LFP_VPVS:GeologLFP:r1:0001:v1
NPHI        .v/v decimal   UNKNOWN        : NPHI:CPI:rC:NONE:v1
PHIT        .v/v decimal   UNKNOWN        : PHIT:CPI:r2:0001:v1
RHOB        .g/cm3         UNKNOWN        : RHOB:CPI:rC:NONE:v1
~A     DEPTH          DEN           GR       LFP_AI     LFP_PHIT       LFP_SI     LFP_VPVS         NPHI         PHIT         RHOB 
  3933.90150     2.671168    70.985544 10308.432547     0.010000  5508.590719     1.871311     0.276535     0.010000     2.671205 
  3934.05390     2.673945    70.404382 10259.813768     0.010000  5468.889728     1.876035     0.282952     0.010000     2.673885 
  3934.20630     2.666105    71.048698 10055.246016     0.010000  5319.278518     1.890284     0.303510     0.010000     2.666051 
  3934.35870     2.641069    70.645197  9576.234823     0.010054  4975.085827     1.924807     0.333411     0.010053     2.641017 
  3934.51110     2.598234    70.597135  8997.824843     0.032108  4570.736880     1.968493     0.372347     0.031890     2.598216 
  3934.66350     2.555256    72.976943  8531.247882     0.058728  4252.071479     2.006383     0.402623     0.058329     2.555270 
  3934.81590     2.539946    71.789228  8225.241877     0.068102  4031.769473     2.040110     0.400783     0.067640     2.539993 
  3934.96830     2.536550    71.037395  8101.416348     0.010000  3963.483704     2.044009     0.419581     0.010000     2.536457 
  3935.12070     2.462482    65.992762  7744.591096     0.010000  3781.329348     2.047970     0.464964     0.010000     2.462295 
  3935.27310     2.253933    60.279555  6779.442858     0.010000  3264.363212     2.076689     0.496395     0.010000     2.253933 
  3935.42550     2.013441    54.520628  5587.377567     0.010000  2593.658760     2.154151     0.496369     0.010000     2.013652 
  3935.57790     1.886089    53.529707  4968.211381     0.010000  2242.031494     2.215942     0.484759     0.010000     1.886205 
  3935.73030     1.888639    53.534650  4924.202535     0.010000  2205.017445     2.233300     0.477089     0.010000     1.888822 
  3935.88270     2.003258    54.570512  5278.485927     0.010000  2363.690852     2.233267     0.475137     0.010000     2.003263 
  3936.03510     2.138681    56.944434  5906.773207     0.010000  2711.047691     2.178863     0.462459     0.010000     2.138576 
  3936.18750     2.228993    58.826798  6456.471839     0.010000  3041.405426     2.122910     0.431613     0.010000     2.228961 
  3936.33990     2.311860    61.137062  6943.401899     0.010000  3329.025695     2.085841     0.380962     0.010000     2.311848 
  3936.49230     2.387797    59.959033  7571.776787     0.010000  3746.996341     2.020810     0.340248     0.010000     2.387842 
  3936.64470     2.460788    59.167445  8049.008156     0.010000  4057.239895     1.983974     0.331371     0.010000     2.460651 
  3936.79710     2.487059    57.931205  8524.928987     0.010000  4411.638869     1.932409     0.350451     0.010000     2.487038 
  3936.94950     2.455029    57.081126  8733.131808     0.010000  4607.348789     1.895467     0.381346     0.010000     2.455008 
  3937.10190     2.407525    58.206984  8348.643876     0.010000  4341.830561     1.922816     0.404533     0.010000     2.407488 
  3937.25430     2.349989    61.267085  7838.366206     0.010000  3978.594522     1.970096     0.414386     0.010000     2.349994 
  3937.40670     2.295466    61.461874  7337.046724     0.010000  3651.094579     2.009471     0.419484     0.010000     2.295514 
  3937.55910     2.251347    62.252589  6754.689272     0.010000  3248.293037     2.079498     0.429234     0.010000     2.251390 
  3937.71150     2.246277    61.847105  6740.124255     0.010000  3242.513423     2.078647     0.433432     0.010000     2.246377 
  3937.86390     2.285930    62.756499  6783.794792     0.010000  3233.519716     2.097967     0.429518     0.010000     2.285866 
  3938.01630     2.320017    63.108521  6981.566380     0.010000  3349.553624     2.084325     0.427859     0.010000     2.319931 
  3938.16870     2.284193    62.971693  7018.540614     0.010000  3416.918210     2.054007     0.421879     0.010000     2.284178 
  3938.32110     2.221089    64.475583  6551.362807     0.010000  3123.268173     2.097621     0.420476     0.010000     2.221177 
  3938.47350     2.209177    63.763500  6466.673935     0.010000  3070.506769     2.106122     0.411184     0.010000     2.209354 
  3938.62590     2.288782    63.409620  6923.108880     0.010000  3338.372334     2.073981     0.400351     0.010000     2.288876 
  3938.77830     2.430762    62.012920  7758.712043     0.010000  3831.659385     2.025094     0.385820     0.010000     2.430741 
  3938.93070     2.555018    62.576877  8857.881225     0.010075  4564.046724     1.940925     0.359244     0.010081     2.554932 
  3939.08310     2.623139    62.463259  9944.504832     0.040728  5320.527612     1.869196     0.320028     0.042974     2.623059 
  3939.23550     2.653358    61.483523 10582.965918     0.022308  5793.167056     1.826817     0.285516     0.024884     2.653350 
  3939.38790     2.678813    59.372106 11109.214267     0.010000  6196.641643     1.792830     0.261839     0.010000     2.678851 
  3939.54030     2.704817    54.483809 11452.316199     0.010000  6491.880660     1.764148     0.249852     0.010000     2.704898 
  3939.69270     2.755511    48.847122 11747.759891     0.010000  6740.602590     1.742849     0.245128     0.010000     2.755532 
  3939.84510     2.823329    44.892887 12216.525628     0.010000  7093.649458     1.722229     0.246748     0.010000     2.823282 
  3939.99750     2.865676    49.119064 12416.951372     0.010000  7161.020422     1.733931     0.245424     0.010000     2.865510 
  3940.14990     2.819094    52.578740 12173.139383     0.010000  6969.634005     1.746541     0.248694     0.010000     2.819115 
  3940.30230     2.723731    56.476757 11670.161987     0.010027  6617.587994     1.763478     0.252268     0.010033     2.723767 
  3940.45470     2.655470    58.524393 10948.400205     0.021005  6098.313788     1.795281     0.271378     0.023611     2.655544 
  3940.60710     2.626701    61.437070 10479.085613     0.038515  5731.423453     1.828338     0.297657     0.040802     2.626710 
  3940.75950     2.631736    61.010334 10269.963010     0.035488  5570.455434     1.843681     0.321060     0.037829     2.631712 
  3940.91190     2.638064    56.500677 10194.090801     0.031619  5553.192650     1.835769     0.321569     0.034030     2.638111 
  3941.06430     2.644018    56.238853 10380.165945     0.027983  5694.220528     1.822987     0.303931     0.030462     2.644033 
  3941.21670     2.661158    57.173020 10569.266930     0.017574  5814.379877     1.817779     0.293568     0.020242     2.661119 
  3941.36910     2.670659    58.082273 10778.799376     0.011777  5957.517641     1.809275     0.294969     0.014546     2.670713 
  3941.52150     2.677218    54.895720 10806.402075     0.010019  6006.826690     1.798996     0.299451     0.010664     2.677169 
  3941.67390     2.661019    52.791100 10659.690976     0.017629  5931.295326     1.797182     0.295650     0.020296     2.661080 
  3941.82630     2.651005    51.379661 10656.082579     0.023759  5953.503403     1.789910     0.288155     0.026314     2.650978 
  3941.97870     2.639764    49.743324 10462.940685     0.030595  5831.979174     1.794075     0.281159     0.033026     2.639767 
  3942.13110     2.622801    46.229062 10372.341728     0.040905  5815.078740     1.783670     0.272716     0.043148     2.622789 
  3942.28350     2.617200    44.047869 10434.775239     0.044295  5890.506917     1.771496     0.258427     0.046476     2.617244 
  3942.43590     2.639835    44.135870 10552.713083     0.030536  5963.159984     1.769696     0.248283     0.032961     2.639888 
  3942.58830     2.685034    45.279331 10841.939003     0.010000  6132.080534     1.768079     0.253181     0.010000     2.684947 
  3942.74070     2.709177    45.695624 11104.370455     0.010001  6311.544722     1.759397     0.273607     0.010008     2.709130 
  3942.89310     2.672948    44.753402 10921.207147     0.010455  6211.003816     1.758334     0.294191     0.013253     2.672914 
  3943.04550     2.577054    45.053970 10337.646560     0.068756  5832.192723     1.772469     0.301086     0.070491     2.577142 
  3943.19790     2.495730    43.981334  9633.344563     0.118236  5349.667906     1.800740     0.284823     0.119078     2.495853 
