~Version Information Block
VERS .                 2.00:  CWLS LOG ASCII STANDARD - VERSION 2.00
WRAP .                   NO:  One line per depth step
~Well Information
#----------------- ----------------- -----------------------
STRT               .m     3814.57272 :  Top Depth
STOP               .m     3864.25512 :  Bottom Depth
STEP               .m        0.15240 :  Increment
NULL               .      -999.25000 :  Null Value
WELL               .           Well4 :  Well #15/3-4
FLD                .          Sigrun :  Field
COMP               .         Equinor :  Company
LOC                .       North Sea :  Location
XCOORD             .m    5502.736820 :  Surface X  #435502.736820
YCOORD             .m   20489.030294 :  Surface Y  #6520489.030294
LAT                .       58.818133 :  Latitude
LON                .        1.883283 :  Longitude
ELEV               .m       25.00000 :  Elevation
~Curve Information
#----------------- ----------------- -----------------------
DEPTH              .m                :  Depth      (Equinor)
TVD                .m                :  TVD        (Baville)
DEN                .g/cm3            :  CPI DEN    (Equinor)
GR                 .API              :  CPI GR     (Equinor)
LFP_AI             .kg/m2.s          :  LFP AI     (Equinor)
LFP_PHIT           .V/V              :  LFP PHIT   (Equinor)
LFP_SI             .kPa.s/m          :  LFP SI     (Equinor)
LFP_VPVS           .unitless         :  LFP VPVS   (Equinor)
NPHI               .V/V              :  CPI NPHI   (Equinor)
PHIT               .V/V              :  CPI PHIT   (Equinor)
RHOB               .g/cm3            :  CPI RHOB   (Equinor)
~Parameter Information
#---------------------
~Other Information
#---------------------
~Ascii
# ...
3850.69152	3825.69152	2.34482	20.26887	8532.78913	0.18164	4834.27126	1.76504	0.14553	0.20342	2.35162
3850.84392	3825.84392	2.35427	20.95414	8527.73550	0.17987	4816.16863	1.77059	0.14938	0.20112	2.35549
3850.99632	3825.99632	2.35413	21.17792	8482.79991	0.18072	4796.74347	1.76839	0.14253	0.20230	2.35345
3851.14872	3826.14872	2.34549	22.43549	8423.65114	0.18654	4770.03990	1.76605	0.13218	0.20918	2.34186
3851.30112	3826.30112	2.34981	22.00542	8731.73023	0.18021	5008.16279	1.74384	0.10247	0.20210	2.35372
3851.45352	3826.45352	2.38560	19.86898	9458.97402	0.15557	5552.64874	1.70374	0.08835	0.17416	2.40073
3851.60592	3826.60592	2.44852	18.61958	10126.77012	0.11881	6028.84652	1.67982	0.08259	0.13248	2.47086
3851.75832	3826.75832	2.49343	20.76701	10426.71252	0.10209	6193.19831	1.68353	0.09672	0.11446	2.50375
3851.91072	3826.91072	2.48254	24.34021	10182.24515	0.11884	6031.25210	1.68815	0.10603	0.13147	2.47253
3852.06312	3827.06312	2.44861	26.87270	9677.56792	0.13764	5655.68818	1.71097	0.12111	0.15229	2.43738
3852.21552	3827.21552	2.42011	26.39276	9146.91278	0.15094	5265.95999	1.73701	0.12500	0.16729	2.41206
3852.36792	3827.36792	2.40676	26.83912	9074.91975	0.15501	5222.37537	1.73770	0.12446	0.17190	2.40429
3852.52032	3827.52032	2.40293	25.88451	8999.93163	0.15587	5181.69574	1.73696	0.11376	0.17298	2.40236
3852.67272	3827.67272	2.41038	31.13800	9345.18699	0.14983	5448.63763	1.71525	0.11181	0.16587	2.41425
3852.82512	3827.82512	2.43546	30.60435	9679.32387	0.13379	5665.92180	1.70832	0.11040	0.14728	2.44537
3852.97752	3827.97752	2.45598	32.80656	9616.21944	0.12608	5569.47047	1.72654	0.12013	0.13798	2.46089
3853.12992	3828.12992	2.45960	31.55968	9538.45698	0.12757	5505.42394	1.73243	0.12258	0.13903	2.45892
3853.28232	3828.28232	2.44695	30.96531	9186.09554	0.13734	5243.51742	1.75184	0.12748	0.14930	2.44129
3853.43472	3828.43472	2.42538	30.22422	9014.52063	0.15025	5128.46622	1.75765	0.13586	0.16299	2.41794
3853.58712	3828.58712	2.40992	28.10160	8863.07243	0.15716	4979.50705	1.77995	0.16022	0.16983	2.40618
3853.73952	3828.73952	2.40353	29.73106	8847.87588	0.15956	4947.98772	1.78816	0.17339	0.17211	2.40231
3853.89192	3828.89192	2.40367	29.02615	8667.07083	0.15879	4781.76788	1.81264	0.18405	0.17097	2.40428
3854.04432	3829.04432	2.40163	27.95587	8861.56934	0.16072	4952.94886	1.78919	0.17822	0.17330	2.40038
3854.19672	3829.19672	2.39773	25.23915	8847.43269	0.16269	4948.04067	1.78805	0.17813	0.17555	2.39658
3854.34912	3829.34912	2.40855	22.96427	8894.25118	0.15276	4994.30678	1.78104	0.15955	0.16495	2.41440
3854.50152	3829.50152	2.45818	22.02407	9383.26550	0.11752	5343.03660	1.75662	0.13460	0.12675	2.47889
3854.65392	3829.65392	2.53463	23.83560	10642.74167	0.07865	6264.18086	1.69939	0.09994	0.08012	2.56090
3854.80632	3829.80632	2.61800	31.98178	11937.15930	0.02763	7224.86406	1.65266	0.06631	0.03008	2.64464
3854.95872	3829.95872	2.66456	41.27570	13322.02312	0.01003	8317.62411	1.60175	0.04636	0.01271	2.67375
3855.11112	3830.11112	2.66716	46.64387	13856.59389	0.01588	8775.94801	1.57884	0.04154	0.01860	2.66400
3855.26352	3830.26352	2.64938	44.04571	13518.88396	0.02901	8527.94809	1.58535	0.04940	0.03150	2.64244
3855.41592	3830.41592	2.61987	40.53759	14148.76285	0.04918	9047.19229	1.56369	0.06650	0.05129	2.60934
3855.56832	3830.56832	2.60002	41.88600	12841.61357	0.05752	7984.22069	1.60819	0.08553	0.05948	2.59563
3855.72072	3830.72072	2.58502	44.19508	12137.50619	0.06671	7413.41112	1.63694	0.10168	0.06838	2.57985
3855.87312	3830.87312	2.54396	45.78610	10513.70308	0.01000	6168.53413	1.70409	0.12729	0.01000	2.52640
3856.02552	3831.02552	2.39628	46.82216	8061.91507	0.01000	4276.18996	1.88470	0.19743	0.01000	2.33413
3856.17792	3831.17792	2.07859	48.86534	5631.74604	0.01000	2724.26802	2.06691	0.33304	0.01000	1.95955
3856.33032	3831.33032	1.89381	53.36594	4790.62215	0.01000	2159.47293	2.21855	0.44162	0.01000	1.86351
3856.48272	3831.48272	1.89335	51.45736	4898.37584	0.01000	2200.18882	2.22676	0.48579	0.01000	1.90865
3856.63512	3831.63512	2.11776	49.05329	5529.83309	0.01044	2394.01144	2.31075	0.47509	0.01057	2.21620
3856.78752	3831.78752	2.41803	47.13882	6536.19979	0.09749	2916.33374	2.24176	0.47354	0.09592	2.51197
3856.93992	3831.93992	2.55051	50.05304	7225.94256	0.06273	3394.37609	2.12909	0.45444	0.06177	2.56837
3857.09232	3832.09232	2.56436	54.61415	7756.84117	0.06632	3782.83612	2.05116	0.42269	0.06529	2.56251
3857.24472	3832.24472	2.56387	52.32419	8687.35155	0.06507	4516.75144	1.92363	0.38897	0.06404	2.56459
3857.39712	3832.39712	2.57785	48.18894	9185.46869	0.05312	4919.57283	1.86718	0.35011	0.05231	2.58393
3857.54952	3832.54952	2.57332	41.94775	9319.89835	0.06293	5082.44879	1.83378	0.35161	0.06202	2.56808
3857.70192	3832.70192	2.52158	44.11207	9409.49528	0.10512	5184.94403	1.81495	0.36119	0.10356	2.49966
3857.85432	3832.85432	2.45051	47.95310	9838.70692	0.14957	5534.64258	1.77753	0.43312	0.14728	2.42757
3858.00672	3833.00672	2.40901	51.22519	9212.87030	0.16557	5039.69566	1.82780	0.43699	0.16276	2.40039
3858.15912	3833.15912	2.39903	52.54645	8251.51338	0.01000	4333.47560	1.90387	0.43269	0.01000	2.39794
3858.31152	3833.31152	2.33159	49.18393	7616.14345	0.01000	3943.35001	1.93097	0.44693	0.01000	2.30018
3858.46392	3833.46392	2.20990	48.44567	6280.06942	0.01000	3022.77784	2.07736	0.47956	0.01000	2.16794
3858.61632	3833.61632	2.15862	50.15902	5864.40986	0.01000	2712.78540	2.16202	0.49349	0.01000	2.15464
3858.76872	3833.76872	2.20379	50.76724	6208.68029	0.01000	2908.71000	2.13512	0.45890	0.01000	2.22721
3858.92112	3833.92112	2.31483	54.36727	6998.46754	0.01000	3391.24268	2.06348	0.44113	0.01000	2.35513
3859.07352	3834.07352	2.30197	52.77080	6658.97759	0.01000	3207.59721	2.07562	0.48601	0.01000	2.27645
3859.22592	3834.22592	2.15299	57.13718	5954.79730	0.01000	2841.93432	2.09488	0.52228	0.01000	2.09485
3859.37832	3834.37832	1.97201	59.70176	5005.59887	0.01000	2277.63690	2.19749	0.58471	0.01000	1.91472
3859.53072	3834.53072	1.87359	62.72970	4582.83977	0.01000	2004.73846	2.28626	0.53223	0.01000	1.85479
3859.68312	3834.68312	1.89591	71.60380	4850.87651	0.01000	2155.96985	2.25025	0.53344	0.01000	1.91566
3859.83552	3834.83552	2.01063	80.27437	5232.32173	0.01000	2317.84633	2.25787	0.48094	0.01000	2.05535
3859.98792	3834.98792	2.14964	85.35093	5757.56988	0.01000	2590.94549	2.22288	0.47684	0.01000	2.19375
3860.14032	3835.14032	2.24419	80.28813	6510.03044	0.01000	3101.68260	2.09907	0.43350	0.01000	2.26769
3860.29272	3835.29272	2.28095	75.17353	6755.39384	0.01000	3272.21301	2.06443	0.41410	0.01000	2.28714
3860.44512	3835.44512	2.29244	72.22355	6678.88688	0.01088	3204.47210	2.08441	0.42228	0.01114	2.29525
3860.59752	3835.59752	2.34569	66.66224	6920.31001	0.18537	3271.66925	2.11543	0.40531	0.18242	2.36950
3860.74992	3835.74992	2.42660	61.34959	7306.12638	0.13319	3496.46225	2.08986	0.41200	0.13093	2.45328
3860.90232	3835.90232	2.47986	56.03893	7815.93962	0.01000	3892.34997	2.00799	0.39017	0.01000	2.49158
3861.05472	3836.05472	2.40130	57.63689	7797.55048	0.01000	4006.93373	1.94574	0.39701	0.01000	2.35889
3861.20712	3836.20712	2.28588	53.58875	7120.66012	0.01000	3592.16058	1.98216	0.40550	0.01000	2.25193
3861.35952	3836.35952	2.24125	52.50743	6819.33714	0.01097	3374.06486	2.02150	0.45253	0.01127	2.23678
3861.51192	3836.51192	2.30585	47.52422	7447.26168	0.20459	3743.52989	1.99003	0.42908	0.20132	2.33839
3861.66432	3836.66432	2.40875	46.06919	8498.27140	0.14039	4498.21986	1.88929	0.40412	0.13800	2.44087
3861.81672	3836.81672	2.36385	47.48707	8469.19504	0.01000	4594.70225	1.84296	0.36750	0.01000	2.32720
3861.96912	3836.96912	2.19708	51.32944	7678.27582	0.01000	4144.99911	1.85202	0.43335	0.01000	2.13623
3862.12152	3837.12152	2.06852	54.85361	6361.79783	0.01000	3218.80891	1.97625	0.48341	0.01000	2.03701
3862.27392	3837.27392	2.02375	50.35554	5856.43358	0.01000	2843.19182	2.05979	0.48544	0.01000	2.01769
3862.42632	3837.42632	2.03095	46.24599	5791.56967	0.01000	2773.21275	2.08823	0.50325	0.01000	2.03685
3862.57872	3837.57872	2.00034	38.86831	5543.36247	0.01000	2647.96904	2.09307	0.46824	0.01000	1.98276
3862.73112	3837.73112	1.88983	37.48395	4950.05309	0.01000	2305.28336	2.14764	0.46371	0.01000	1.84685
