~Version Information Block
VERS .                 2.00:  CWLS LOG ASCII STANDARD - VERSION 2.00
WRAP .                   NO:  One line per depth step
~Well Information
#----------------- ----------------- -----------------------
STRT               .m     3814.57272 :  Top Depth
STOP               .m     3864.25512 :  Bottom Depth
STEP               .m        0.15240 :  Increment
NULL               .      -999.25000 :  Null Value
WELL               .           Well4 :  Well #15/3-4
FLD                .          Sigrun :  Field
COMP               .         Equinor :  Company
LOC                .       North Sea :  Location
XCOORD             .m    5502.736820 :  Surface X  #435502.736820
YCOORD             .m   20489.030294 :  Surface Y  #6520489.030294
LAT                .       58.818133 :  Latitude
LON                .        1.883283 :  Longitude
ELEV               .m       25.00000 :  Elevation
~Curve Information
#----------------- ----------------- -----------------------
DEPTH              .m                :  Depth      (Equinor)
TVD                .m                :  TVD        (Baville)
DEN                .g/cm3            :  CPI DEN    (Equinor)
GR                 .API              :  CPI GR     (Equinor)
LFP_AI             .kg/m2.s          :  LFP AI     (Equinor)
LFP_PHIT           .V/V              :  LFP PHIT   (Equinor)
LFP_SI             .kPa.s/m          :  LFP SI     (Equinor)
LFP_VPVS           .unitless         :  LFP VPVS   (Equinor)
NPHI               .V/V              :  CPI NPHI   (Equinor)
PHIT               .V/V              :  CPI PHIT   (Equinor)
RHOB               .g/cm3            :  CPI RHOB   (Equinor)
~Parameter Information
#---------------------
~Other Information
#---------------------
~Ascii
# ...
3826.61232	3801.61232	2.61625	47.56805	11259.62033	0.04084	6604.94827	1.70466	0.13443	0.04309	2.62297
3826.76472	3801.76472	2.61903	55.32384	11050.49317	0.04438	6390.85191	1.72911	0.16711	0.04655	2.61723
3826.91712	3801.91712	2.62117	64.25743	11018.14853	0.04078	6314.42405	1.74496	0.19144	0.04301	2.62307
3827.06952	3802.06952	2.63375	65.81309	11017.98572	0.03120	6279.59259	1.75456	0.19876	0.03359	2.63885
3827.22192	3802.22192	2.66006	65.89144	11148.62205	0.01223	6322.03858	1.76349	0.20563	0.01498	2.67008
3827.37432	3802.37432	2.69667	56.23945	11312.32371	0.01000	6363.88440	1.77767	0.21829	0.01000	2.70910
3827.52672	3802.52672	2.72372	54.03655	11599.56586	0.01000	6542.57018	1.77293	0.22319	0.01000	2.73054
3827.67912	3802.67912	2.73584	55.19602	11661.94154	0.01000	6563.91734	1.77662	0.23139	0.01000	2.73811
3827.83152	3802.83152	2.71024	63.55690	11456.50850	0.01007	6491.70730	1.76472	0.22025	0.01011	2.69708
3827.98392	3802.98392	2.66520	68.94582	11101.93946	0.02425	6280.89855	1.76741	0.22719	0.02683	2.65024
3828.13632	3803.13632	2.62767	70.65377	10610.44886	0.04428	5896.92283	1.79933	0.25619	0.04643	2.61738
3828.28872	3803.28872	2.64260	63.54744	10763.97921	0.02171	5873.58276	1.83287	0.32442	0.02427	2.65448
3828.44112	3803.44112	2.67970	53.81542	11553.05913	0.01000	6532.75451	1.76841	0.36677	0.01000	2.69155
3828.59352	3803.59352	2.71283	47.90293	11337.37218	0.01000	6404.64624	1.77015	0.38069	0.01000	2.72268
3828.74592	3803.74592	2.71996	53.75594	11021.08664	0.01000	6098.92640	1.80704	0.34434	0.01000	2.71875
3828.89832	3803.89832	2.71069	54.95469	10947.17672	0.01000	6039.87615	1.81250	0.26320	0.01000	2.70699
3829.05072	3804.05072	2.70570	45.39169	11060.62375	0.01000	6260.91925	1.76683	0.16371	0.01000	2.70514
3829.20312	3804.20312	2.71044	29.21159	11620.08662	0.01000	6852.59102	1.69600	0.09123	0.01000	2.71298
3829.35552	3804.35552	2.72495	21.17190	12544.36084	0.01000	7672.15282	1.63541	0.07568	0.01000	2.73046
3829.50792	3804.50792	2.72516	21.19419	13742.99282	0.01000	8633.66820	1.59166	0.07476	0.01000	2.72261
3829.66032	3804.66032	2.70928	25.91252	13285.30182	0.01000	8221.67433	1.61575	0.08555	0.01002	2.70296
3829.81272	3804.81272	2.68304	37.08617	12532.96710	0.01011	7575.24382	1.65431	0.10688	0.01282	2.67363
3829.96512	3804.96512	2.64840	48.64744	11445.22191	0.03259	6607.54952	1.73193	0.19719	0.03502	2.63654
3830.11752	3805.11752	2.61267	59.90858	10378.28398	0.05389	5678.01280	1.82761	0.28336	0.05589	2.60165
3830.26992	3805.26992	2.60824	66.93899	9522.90376	0.04786	4960.52959	1.91961	0.31567	0.04994	2.61147
3830.42232	3805.42232	2.63540	67.21657	9088.93878	0.02645	4657.36438	1.95148	0.26439	0.02891	2.64671
3830.57472	3805.57472	2.67724	60.17200	9079.32791	0.01000	4661.93171	1.94775	0.21141	0.01000	2.69137
3830.72712	3805.72712	2.68736	50.35791	9550.38787	0.01003	5042.13106	1.89450	0.20818	0.01006	2.68540
3830.87952	3805.87952	2.67085	46.77541	10495.73913	0.01589	5816.38057	1.80462	0.24311	0.01861	2.66399
3831.03192	3806.03192	2.64801	45.53873	10771.77376	0.03005	6062.92795	1.77698	0.23226	0.03248	2.64068
3831.18432	3806.18432	2.65265	40.52848	11679.07052	0.01934	6813.90311	1.71398	0.19744	0.02196	2.65828
3831.33672	3806.33672	2.67025	33.37463	11726.03394	0.01000	6918.24492	1.69500	0.13221	0.01149	2.67591
3831.48912	3806.48912	2.69182	26.77102	12064.49538	0.01000	7243.97880	1.66537	0.10791	0.01000	2.69915
3831.64152	3806.64152	2.69119	27.93473	11840.22374	0.01001	7062.37846	1.67655	0.10702	0.01003	2.68743
3831.79392	3806.79392	2.67682	33.93755	11974.38458	0.01105	7110.24157	1.68404	0.12515	0.01383	2.67191
3831.94632	3806.94632	2.67320	40.52080	11579.52935	0.01002	6730.95517	1.72025	0.15542	0.01270	2.67377
3832.09872	3807.09872	2.66983	44.86906	11363.61017	0.01342	6518.11012	1.74340	0.18511	0.01615	2.66804
3832.25112	3807.25112	2.67334	43.63763	11394.44323	0.01001	6537.59742	1.74283	0.19538	0.01152	2.67578
3832.40352	3807.40352	2.67313	46.29695	10921.81445	0.01105	6144.10822	1.77761	0.20952	0.01383	2.67191
3832.55592	3807.55592	2.67320	49.62277	10839.71577	0.01003	6042.82467	1.79388	0.22026	0.01271	2.67375
3832.70832	3807.70832	2.66716	55.66670	10917.30813	0.01588	6096.71415	1.79066	0.23031	0.01860	2.66400
3832.86072	3807.86072	2.64938	51.28769	10830.22075	0.02892	6119.85152	1.76975	0.19711	0.03139	2.64259
3833.01312	3808.01312	2.64123	46.06111	10942.67620	0.03010	6266.65588	1.74626	0.16549	0.03255	2.64060
3833.16552	3808.16552	2.64060	39.22415	11247.03091	0.03014	6517.89897	1.72553	0.15832	0.03259	2.64055
3833.31792	3808.31792	2.63259	40.34796	11255.47492	0.03736	6504.11129	1.73051	0.18316	0.03970	2.62874
3833.47032	3808.47032	2.60481	41.24584	11135.03053	0.05875	6431.36377	1.73133	0.19530	0.06069	2.59370
3833.62272	3808.62272	2.57905	46.94557	11168.42905	0.07177	6492.11111	1.72024	0.19333	0.07345	2.57231
3833.77512	3808.77512	2.57360	55.21261	10748.27796	0.07052	6172.99136	1.74117	0.18654	0.07221	2.57430
3833.92752	3808.92752	2.58892	60.47311	10753.97060	0.05751	6141.28437	1.75098	0.18897	0.05946	2.59567
3834.07992	3809.07992	2.59166	61.37500	10525.74983	0.06110	5969.82509	1.76316	0.19000	0.06299	2.58975
3834.23232	3809.23232	2.58179	61.38273	10653.17436	0.06831	6064.07400	1.75670	0.20220	0.07009	2.57794
3834.38472	3809.38472	2.55407	63.01545	10255.85651	0.08952	5785.11679	1.77274	0.21258	0.09083	2.54319
3834.53712	3809.53712	2.57107	66.23128	9875.45736	0.06454	5368.62799	1.83951	0.24923	0.06632	2.58415
3834.68952	3809.68952	2.60536	62.29868	9795.63200	0.04551	5195.01302	1.88558	0.29255	0.04765	2.61531
3834.84192	3809.84192	2.63129	59.38644	9785.26799	0.03132	5157.35272	1.89735	0.30665	0.03375	2.63865
3834.99432	3809.99432	2.63199	55.23975	9682.27212	0.03727	5124.65075	1.88926	0.30853	0.03958	2.62887
3835.14672	3810.14672	2.62486	53.07671	9478.56148	0.04072	4993.45373	1.89842	0.29445	0.04294	2.62315
3835.29912	3810.29912	2.64443	49.47786	10089.34749	0.02171	5479.98836	1.84114	0.29675	0.02427	2.65442
3835.45152	3810.45152	2.67169	44.83102	10118.40875	0.01000	5527.10425	1.83093	0.26992	0.01000	2.67980
3835.60392	3810.60392	2.69442	42.12010	10870.62247	0.01000	6123.39982	1.77542	0.24840	0.01000	2.70125
3835.75632	3810.75632	2.70784	34.53910	11236.61176	0.01000	6487.35493	1.73234	0.21906	0.01000	2.71097
3835.90872	3810.90872	2.72028	29.60338	12083.13445	0.01000	7202.21594	1.67797	0.18243	0.01000	2.72467
3836.06112	3811.06112	2.73528	21.80804	12853.97396	0.01000	7900.23097	1.62728	0.14286	0.01000	2.74022
3836.21352	3811.21352	2.74287	20.88028	13761.86748	0.01000	8633.28285	1.59408	0.09951	0.01000	2.74409
3836.36592	3811.36592	2.74280	22.01553	13928.93365	0.01000	8751.83560	1.59145	0.07972	0.01000	2.74210
3836.51832	3811.51832	2.72748	28.58721	13638.47587	0.01000	8447.60625	1.61435	0.10724	0.01000	2.72065
3836.67072	3811.67072	2.71269	40.35410	12591.10920	0.01000	7480.42001	1.68308	0.17080	0.01000	2.70908
3836.82312	3811.82312	2.72105	49.09430	11976.26354	0.01000	6880.14007	1.74063	0.25213	0.01000	2.72679
3836.97552	3811.97552	2.75467	55.74376	11368.88593	0.01000	6299.08983	1.80472	0.28812	0.01000	2.76759
3837.12792	3812.12792	2.76623	54.44968	11007.77729	0.01000	6036.97668	1.82326	0.29595	0.01000	2.76529
3837.28032	3812.28032	2.72015	57.01189	10520.25252	0.01014	5693.22330	1.84777	0.30619	0.01020	2.69887
3837.43272	3812.43272	2.65108	59.53209	10069.07628	0.03742	5375.90873	1.87285	0.31510	0.03979	2.62862
3837.58512	3812.58512	2.58879	66.25238	9624.34976	0.07291	5074.07303	1.89656	0.34880	0.07456	2.57038
3837.73752	3812.73752	2.58235	66.75297	8987.03989	0.06228	4571.33700	1.96581	0.38436	0.06414	2.58786
3837.88992	3812.88992	2.58256	67.38183	8570.29856	0.06697	4259.65996	2.01191	0.40233	0.06872	2.58017
3838.04232	3813.04232	2.59078	68.82587	8382.72854	0.05746	4102.40203	2.04333	0.39827	0.05939	2.59575
3838.19472	3813.19472	2.60241	71.63273	8273.45449	0.05139	4010.34947	2.06313	0.36381	0.05339	2.60573
3838.34712	3813.34712	2.63890	73.22088	8499.95859	0.02171	4140.08265	2.05310	0.37241	0.02427	2.65449
3838.49952	3813.49952	2.68237	67.10777	8632.33714	0.01000	4205.37518	2.05281	0.34219	0.01000	2.69531
