#------------------------------------------------------------------------------
#
#   Created by   : las_export
#   Created on   : 2019-11-07 11:28:03
#   Project      : GUDRUN
#   User         : MAAP
#   Interpreters : STAT, AKOLB, *
#
#------------------------------------------------------------------------------
~VERSION INFORMATION
VERS. 2.0 : CWLS Log ASCII Standard - version 2.0
WRAP.  NO : One line per depth step

~WELL INFORMATION
#MNEMONIC   .UNIT                                           VALUE :DESCRIPTION
#------------------------------------------------------------------------------
STRT        .M                                       3933.9015 :START DEPTH
STOP        .M                                       4023.0555 :STOP DEPTH
STEP        .M                                          0.1524 :STEP
NULL        .                                        -999.2500 :NULL VALUE
COMP        .                                                  :COMPANY
WELL        .                                            Well5 :WELL  #15/3-5
FLD         .                                           GUDRUN :FIELD
LOC         .                                          UNKNOWN :LOCATION
CNTY        .                                          UNKNOWN :COUNTY
STAT        .                                          UNKNOWN :STATE
CTRY        .                                           Norway :COUNTRY
SRVC        .                                          UNKNOWN :SERVICE COMPANY
DATE        .                                          UNKNOWN :LOG DATE
UWI         .                                        NO 15/3-5 :UNIQUE WELL ID
XCOORD      .M                                     3105.221162 :SURFACE X  #433105.221162
YCOORD      .M                                    17057.344558 :SURFACE Y  #6517057.344558
LAT         .                                        58.786956 :LATITUDE
LON         .                                         1.842808 :LONGITUDE
ELEV        .M                                         25.0000 :SURFACE ELEV
ELEV_TYPE   .                                               KB :ELEV TYPE

~CURVE INFORMATION
#MNEMONIC   .UNIT          API CODE       : CURVE DESCRIPTION
#------------------------------------------------------------------------------
DEPTH       .M                            : Measured Depth
DEN         .g/cm3         UNKNOWN        : DEN:COMPOSITE:rC:NONE:v1
GR          .API           UNKNOWN        : GR:CPI:rC:NONE:v1
LFP_AI      .kg/m2.s       UNKNOWN        : LFP_AI:GeologLFP:r1:0001:v1
LFP_PHIT    .v/v decimal   UNKNOWN        : LFP_PHIT:GeologLFP:rC:NONE:v1
LFP_SI      .kPa.s/m       UNKNOWN        : LFP_SI:GeologLFP:r1:0001:v1
LFP_VPVS    .unitless      UNKNOWN        : LFP_VPVS:GeologLFP:r1:0001:v1
NPHI        .v/v decimal   UNKNOWN        : NPHI:CPI:rC:NONE:v1
PHIT        .v/v decimal   UNKNOWN        : PHIT:CPI:r2:0001:v1
RHOB        .g/cm3         UNKNOWN        : RHOB:CPI:rC:NONE:v1
~A     DEPTH          DEN           GR       LFP_AI     LFP_PHIT       LFP_SI     LFP_VPVS         NPHI         PHIT         RHOB 
# ...
  3981.14550     2.665341    56.579086 10207.183883     0.015011  5642.407653     1.809039     0.298382     0.017725     2.665290 
  3981.29790     2.660078    62.375023 10144.845615     0.018225  5558.436542     1.825067     0.306410     0.020880     2.660073 
  3981.45030     2.646201    71.801481 10018.163145     0.026650  5407.653801     1.852631     0.305924     0.029152     2.646181 
  3981.60270     2.636646    76.269211  9941.558077     0.032484  5329.149659     1.865529     0.307540     0.034879     2.636675 
  3981.75510     2.624096    77.276621  9766.556901     0.040085  5202.776616     1.877189     0.317584     0.042342     2.624108 
  3981.90750     2.628440    74.418093  9735.706468     0.037456  5198.788651     1.872697     0.324685     0.039761     2.628434 
  3982.05990     2.646095    74.209158  9805.949794     0.026720  5239.552126     1.871577     0.321677     0.029220     2.646133 
  3982.21230     2.663004    72.725028  9940.449159     0.016446  5337.864452     1.862267     0.319766     0.019134     2.663005 
  3982.36470     2.665341    69.912250 10035.853201     0.015029  5429.101104     1.848548     0.333901     0.017742     2.665266 
  3982.51710     2.648078    64.435281 10069.744859     0.025544  5510.856014     1.827230     0.347575     0.028066     2.648023 
  3982.66950     2.608625    55.657508 10029.291489     0.049549  5576.385043     1.798537     0.349756     0.051633     2.608596 
  3982.82190     2.555111    47.046423  9944.165387     0.082090  5609.178210     1.772839     0.323113     0.083581     2.555116 
  3982.97430     2.511806    39.966890  9923.723002     0.108430  5677.174434     1.747996     0.283605     0.109447     2.511859 
  3983.12670     2.490660    40.816087  9902.251811     0.118873  5670.006009     1.746396     0.234659     0.122089     2.490686 
  3983.27910     2.483641    39.894712  9868.456574     0.123267  5655.502062     1.744881     0.198770     0.126292     2.483590 
  3983.43150     2.478446    35.612716  9820.922384     0.126553  5653.977545     1.736966     0.183790     0.129391     2.478481 
  3983.58390     2.468555    28.919739  9760.978482     0.132590  5665.123951     1.722954     0.187382     0.131526     2.468562 
  3983.73630     2.448846    23.250401  9774.911858     0.144514  5735.888998     1.704182     0.198621     0.143015     2.448862 
  3983.88870     2.429401    20.739773  9721.358010     0.156291  5728.796952     1.696925     0.196816     0.154401     2.429387 
  3984.04110     2.422505    22.693668  9608.804631     0.160450  5629.087719     1.707020     0.177088     0.158451     2.422527 
  3984.19350     2.436558    25.849198  9650.333963     0.152058  5626.288034     1.715219     0.154080     0.150355     2.436506 
  3984.34590     2.439377    27.299442  9597.629145     0.150547  5570.700261     1.722876     0.155492     0.148913     2.439394 
  3984.49830     2.436136    23.644488  9603.065373     0.152679  5605.772560     1.713064     0.185409     0.150946     2.436099 
  3984.65070     2.435500    21.527370  9754.865972     0.152885  5744.516175     1.698167     0.204914     0.151118     2.435562 
  3984.80310     2.467475    22.375057 10138.490793     0.133170  6018.728797     1.684522     0.191595     0.132023     2.467476 
  3984.95550     2.506399    26.037644 10274.883874     0.109130  6066.643867     1.693637     0.152939     0.112704     2.506335 
  3985.10790     2.524213    32.262455 10315.789561     0.100917  6036.623715     1.708861     0.121243     0.102065     2.524188 
  3985.26030     2.518028    39.900093 10162.824898     0.104641  5861.898229     1.733751     0.125941     0.105721     2.518104 
  3985.41270     2.520313    47.097733 10096.894964     0.103239  5754.451088     1.754598     0.154811     0.104345     2.520355 
  3985.56510     2.548694    51.086835 10343.964479     0.085979  5898.647045     1.753652     0.187947     0.087399     2.548682 
  3985.71750     2.591180    51.003107 10805.303233     0.060144  6231.065714     1.734165     0.194529     0.062035     2.591167 
  3985.86990     2.625476    51.155621 11188.265828     0.039304  6506.090885     1.719681     0.181381     0.041575     2.625400 
  3986.02230     2.625460    50.313498 11305.342012     0.039300  6604.502242     1.711792     0.165273     0.041570     2.625450 
  3986.17470     2.599760    51.264589 11314.651580     0.054935  6622.839049     1.708430     0.156731     0.056920     2.599729 
  3986.32710     2.563211    49.396530 10882.843624     0.077131  6324.099513     1.720808     0.155863     0.078712     2.563278 
  3986.47950     2.552095    48.504052 10755.562382     0.083898  6238.944627     1.723985     0.163160     0.085356     2.552140 
  3986.63190     2.572676    47.422863 10898.086321     0.071381  6344.459354     1.717778     0.175263     0.073067     2.572672 
  3986.78430     2.609953    46.802145 11173.651940     0.048737  6538.954647     1.708790     0.187639     0.050836     2.609936 
  3986.93670     2.628386    47.231739 11330.400618     0.037528  6645.529416     1.704914     0.194284     0.039832     2.628371 
  3987.08910     2.613583    49.419220 11252.293083     0.046505  6577.916688     1.710634     0.192866     0.048644     2.613561 
  3987.24150     2.593501    52.447263 11034.043481     0.058726  6397.631185     1.724728     0.185937     0.060643     2.593473 
  3987.39390     2.579923    52.628813 10794.145735     0.066975  6217.625427     1.736014     0.176080     0.068742     2.579900 
  3987.54630     2.580154    51.930765 10674.340114     0.066851  6128.678105     1.741697     0.169217     0.068620     2.580106 
  3987.69870     2.583364    51.608909 10695.380504     0.064889  6145.218645     1.740410     0.161767     0.066693     2.583411 
  3987.85110     2.589318    50.405850 10602.930446     0.061264  6077.219321     1.744700     0.168028     0.063135     2.589323 
  3988.00350     2.601140    50.690009 10649.254482     0.054070  6102.940702     1.744909     0.193876     0.056071     2.601132 
  3988.15590     2.617431    54.579938 10781.714083     0.044162  6166.491886     1.748429     0.221760     0.046344     2.617429 
  3988.30830     2.632340    60.791674 10860.595355     0.035104  6170.067926     1.760219     0.229735     0.037451     2.632303 
  3988.46070     2.634041    63.597670 10842.501607     0.034062  6132.652846     1.768026     0.217975     0.036428     2.633985 
  3988.61310     2.626119    64.438725 10663.810197     0.038877  5994.912052     1.778825     0.217502     0.041155     2.626084 
  3988.76550     2.617682    65.158961 10496.718427     0.043992  5866.917991     1.789138     0.236502     0.046178     2.617711 
  3988.91790     2.623245    67.197535 10359.279538     0.040610  5740.310846     1.804680     0.258738     0.042856     2.623238 
  3989.07030     2.642954    64.996413 10493.215260     0.028613  5841.535171     1.796338     0.271072     0.031078     2.642961 
  3989.22270     2.674330    61.464449 10904.134727     0.010000  6157.096113     1.770995     0.269947     0.012385     2.674358 
  3989.37510     2.704181    53.322535 11482.273731     0.010000  6645.711162     1.727880     0.263398     0.010000     2.704151 
  3989.52750     2.730217    44.069065 12218.103788     0.010000  7278.203117     1.678798     0.242960     0.010000     2.730216 
  3989.67990     2.738300    36.399281 12907.731068     0.010000  7884.080638     1.637248     0.200550     0.010000     2.738300 
  3989.83230     2.738300    33.371835 13332.101349     0.010000  8248.974325     1.616180     0.155096     0.010000     2.738287 
  3989.98470     2.731619    33.540059 13550.703009     0.010000  8427.170360     1.607981     0.139545     0.010000     2.731594 
  3990.13710     2.728500    33.016753 13739.126444     0.010000  8584.671339     1.600412     0.160250     0.010000     2.728508 
  3990.28950     2.732522    33.148224 13611.961906     0.010000  8478.690432     1.605423     0.192773     0.010000     2.732491 
  3990.44190     2.727719    34.834690 13398.097998     0.010000  8296.808290     1.614774     0.211541     0.010000     2.727666 
