#------------------------------------------------------------------------------
#
#   Created by   : las_export
#   Created on   : 2019-11-07 11:28:03
#   Project      : GUDRUN
#   User         : MAAP
#   Interpreters : STAT, AKOLB, *
#
#------------------------------------------------------------------------------
~VERSION INFORMATION
VERS. 2.0 : CWLS Log ASCII Standard - version 2.0
WRAP.  NO : One line per depth step

~WELL INFORMATION
#MNEMONIC   .UNIT                                           VALUE :DESCRIPTION
#------------------------------------------------------------------------------
STRT        .M                                       3933.9015 :START DEPTH
STOP        .M                                       4023.0555 :STOP DEPTH
STEP        .M                                          0.1524 :STEP
NULL        .                                        -999.2500 :NULL VALUE
COMP        .                                                  :COMPANY
WELL        .                                            Well5 :WELL  #15/3-5
FLD         .                                           GUDRUN :FIELD
LOC         .                                          UNKNOWN :LOCATION
CNTY        .                                          UNKNOWN :COUNTY
STAT        .                                          UNKNOWN :STATE
CTRY        .                                           Norway :COUNTRY
SRVC        .                                          UNKNOWN :SERVICE COMPANY
DATE        .                                          UNKNOWN :LOG DATE
UWI         .                                        NO 15/3-5 :UNIQUE WELL ID
XCOORD      .M                                     3105.221162 :SURFACE X  #433105.221162
YCOORD      .M                                    17057.344558 :SURFACE Y  #6517057.344558
LAT         .                                        58.786956 :LATITUDE
LON         .                                         1.842808 :LONGITUDE
ELEV        .M                                         25.0000 :SURFACE ELEV
ELEV_TYPE   .                                               KB :ELEV TYPE

~CURVE INFORMATION
#MNEMONIC   .UNIT          API CODE       : CURVE DESCRIPTION
#------------------------------------------------------------------------------
DEPTH       .M                            : Measured Depth
DEN         .g/cm3         UNKNOWN        : DEN:COMPOSITE:rC:NONE:v1
GR          .API           UNKNOWN        : GR:CPI:rC:NONE:v1
LFP_AI      .kg/m2.s       UNKNOWN        : LFP_AI:GeologLFP:r1:0001:v1
LFP_PHIT    .v/v decimal   UNKNOWN        : LFP_PHIT:GeologLFP:rC:NONE:v1
LFP_SI      .kPa.s/m       UNKNOWN        : LFP_SI:GeologLFP:r1:0001:v1
LFP_VPVS    .unitless      UNKNOWN        : LFP_VPVS:GeologLFP:r1:0001:v1
NPHI        .v/v decimal   UNKNOWN        : NPHI:CPI:rC:NONE:v1
PHIT        .v/v decimal   UNKNOWN        : PHIT:CPI:r2:0001:v1
RHOB        .g/cm3         UNKNOWN        : RHOB:CPI:rC:NONE:v1
~A     DEPTH          DEN           GR       LFP_AI     LFP_PHIT       LFP_SI     LFP_VPVS         NPHI         PHIT         RHOB 
# ...
  3971.69670     2.600060    48.259287 11498.183588     0.054712  6693.440277     1.717875     0.144278     0.056702     2.600122 
  3971.84910     2.611654    44.522764 11530.476668     0.047715  6752.591401     1.707634     0.162353     0.049834     2.611602 
  3972.00150     2.612487    40.723582 11877.014955     0.047214  7067.106990     1.680652     0.197686     0.049340     2.612442 
  3972.15390     2.582743    36.592402 11950.710473     0.065293  7194.871647     1.660936     0.229019     0.067090     2.582729 
  3972.30630     2.546370    37.911315 11564.473574     0.087386  6901.129068     1.675702     0.240994     0.088781     2.546396 
  3972.45870     2.544472    43.410230 11044.433444     0.088574  6430.729456     1.717410     0.240324     0.089947     2.544429 
  3972.61110     2.559504    47.306263 10527.989344     0.079432  5973.950587     1.762312     0.239637     0.080972     2.559523 
  3972.76350     2.571113    51.369785 10078.234340     0.072367  5573.731888     1.808186     0.238089     0.074036     2.571111 
  3972.91590     2.576859    54.894928  9788.967634     0.068871  5310.546895     1.843263     0.232389     0.070603     2.576900 
  3973.06830     2.576805    60.797155  9721.701955     0.068914  5201.683097     1.869002     0.224377     0.070645     2.576778 
  3973.22070     2.565496    62.626079  9755.675871     0.075793  5217.335286     1.869851     0.218159     0.077399     2.565462 
  3973.37310     2.545910    57.423361  9725.694981     0.087687  5257.204413     1.849938     0.215549     0.089075     2.545989 
  3973.52550     2.540395    51.414887  9772.063910     0.091048  5356.252958     1.824455     0.215983     0.092376     2.540419 
  3973.67790     2.550340    49.502823  9957.830598     0.084990  5513.248638     1.806209     0.215447     0.086428     2.550345 
  3973.83030     2.573313    52.791498 10126.422259     0.071015  5595.701036     1.809729     0.214940     0.072708     2.573355 
  3973.98270     2.601976    56.568389 10216.364719     0.053564  5608.056254     1.821710     0.218855     0.055574     2.601965 
  3974.13510     2.635299    59.234148 10422.001461     0.033303  5707.423532     1.826026     0.224370     0.035684     2.635245 
  3974.28750     2.658499    61.580380 10476.107417     0.019202  5703.077711     1.836864     0.223983     0.021840     2.658490 
  3974.43990     2.653396    65.799827 10294.728581     0.022282  5525.215654     1.863216     0.219266     0.024864     2.653372 
  3974.59230     2.639128    67.522157 10204.076112     0.030960  5457.221832     1.869828     0.221879     0.033383     2.639184 
  3974.74470     2.630778    67.348550 10030.755987     0.036036  5332.105750     1.881211     0.235345     0.038367     2.630804 
  3974.89710     2.632922    66.570490  9969.067411     0.034751  5286.528553     1.885701     0.247366     0.037105     2.632896 
  3975.04950     2.630778    66.719269  9961.201500     0.036042  5280.982996     1.886284     0.249332     0.038373     2.630796 
  3975.20190     2.628900    67.653940 10039.087990     0.037189  5340.320089     1.879839     0.243484     0.039499     2.628900 
  3975.35430     2.628900    64.699205 10255.306280     0.037187  5528.637772     1.854992     0.236711     0.039497     2.628903 
  3975.50670     2.630264    60.622944 10684.845634     0.036363  5900.302433     1.810933     0.234012     0.038687     2.630298 
  3975.65910     2.629536    57.931288 10975.444987     0.036814  6154.307903     1.783401     0.230428     0.039131     2.629481 
  3975.81150     2.619560    58.985206 10980.765369     0.042878  6156.087335     1.783746     0.226248     0.045084     2.619574 
  3975.96390     2.605928    60.599234 10704.940410     0.051173  5938.446276     1.802648     0.225966     0.053228     2.605976 
  3976.11630     2.593555    60.964374 10380.848699     0.058691  5696.426352     1.822310     0.232395     0.060609     2.593595 
  3976.26870     2.591164    58.741343 10211.271315     0.060137  5590.711758     1.826520     0.238329     0.062029     2.591230 
  3976.42110     2.606458    60.322266 10234.557539     0.050840  5578.696848     1.834593     0.239048     0.052901     2.606444 
  3976.57350     2.629254    60.609610 10380.755209     0.036983  5667.189181     1.831707     0.237142     0.039296     2.629225 
  3976.72590     2.642018    62.167814 10469.747417     0.029246  5707.685467     1.834359     0.240088     0.031700     2.641958 
  3976.87830     2.620570    58.854760 10459.644760     0.042245  5754.539849     1.817607     0.248275     0.044462     2.620563 
  3977.03070     2.601423    58.734188 10335.005623     0.053908  5677.616266     1.820319     0.256408     0.055912     2.601387 
  3977.18310     2.594973    58.632957 10192.922982     0.057814  5574.998055     1.828278     0.261185     0.059748     2.595026 
  3977.33550     2.608358    61.836101  9980.756170     0.049715  5366.065201     1.859964     0.264073     0.051796     2.608303 
  3977.48790     2.609882    64.208824 10283.255076     0.048766  5572.449399     1.845350     0.266733     0.050864     2.609885 
  3977.64030     2.602082    68.751494 10113.173401     0.053501  5420.705188     1.865702     0.265685     0.055513     2.602100 
  3977.79270     2.602259    70.155906 10101.702901     0.053410  5411.860324     1.866570     0.259960     0.055424     2.602297 
  3977.94510     2.600841    70.512894 10252.285689     0.054277  5528.193942     1.854528     0.253957     0.056274     2.600780 
  3978.09750     2.590260    70.811404 10053.973897     0.060702  5387.829093     1.866066     0.251934     0.062583     2.590284 
  3978.24990     2.581946    70.257240 10148.542406     0.065711  5479.110531     1.852255     0.254595     0.067500     2.582063 
  3978.40230     2.614734    68.761605 10441.667221     0.045823  5694.496500     1.833670     0.258282     0.047975     2.614662 
  3978.55470     2.646854    65.589123 10585.987016     0.026268  5811.349726     1.821570     0.259521     0.028776     2.646828 
  3978.70710     2.660981    62.226173 10660.440524     0.017722  5891.925169     1.809278     0.252512     0.020387     2.660936 
  3978.85950     2.628102    60.595928 10563.788997     0.037654  5868.167687     1.800182     0.243906     0.039955     2.628141 
  3979.01190     2.598005    57.194074 10395.358730     0.056000  5798.594911     1.792722     0.247469     0.057967     2.597957 
  3979.16430     2.575846    59.390803 10268.454822     0.069480  5699.728549     1.801583     0.256496     0.071201     2.575860 
  3979.31670     2.555037    57.830106 10225.599805     0.082138  5697.543911     1.794689     0.261299     0.083628     2.555075 
  3979.46910     2.542187    56.726807 10195.806015     0.089957  5696.171486     1.789975     0.259430     0.091305     2.542194 
  3979.62150     2.539100    56.439868 10309.758114     0.091833  5792.861423     1.779754     0.267432     0.093145     2.539113 
  3979.77390     2.545713    62.570335 10222.783323     0.087826  5673.040958     1.801956     0.276289     0.089212     2.545704 
  3979.92630     2.547505    67.514427 10071.664989     0.086729  5518.774686     1.824996     0.277302     0.088136     2.547493 
  3980.07870     2.544241    66.257546 10022.164328     0.088702  5496.797125     1.823283     0.272378     0.090072     2.544208 
  3980.23110     2.548318    59.632245  9876.032862     0.086227  5437.036264     1.816445     0.270842     0.087643     2.548318 
  3980.38350     2.557413    54.873843 10029.671389     0.080679  5591.089235     1.793883     0.270072     0.082195     2.557437 
  3980.53590     2.576522    53.938144 10142.881685     0.069063  5676.410709     1.786805     0.266198     0.070792     2.576540 
  3980.68830     2.597295    53.607179 10153.958373     0.056399  5675.703167     1.789005     0.264817     0.058359     2.597361 
  3980.84070     2.628794    53.393823 10211.448862     0.037251  5701.873101     1.790911     0.271183     0.039559     2.628759 
  3980.99310     2.659281    52.808971 10253.339147     0.018720  5710.903630     1.795433     0.284802     0.021367     2.659212 
