#------------------------------------------------------------------------------
#
#   Created by   : las_export
#   Created on   : 2019-11-07 11:28:03
#   Project      : GUDRUN
#   User         : MAAP
#   Interpreters : STAT, AKOLB, *
#
#------------------------------------------------------------------------------
~VERSION INFORMATION
VERS. 2.0 : CWLS Log ASCII Standard - version 2.0
WRAP.  NO : One line per depth step

~WELL INFORMATION
#MNEMONIC   .UNIT                                           VALUE :DESCRIPTION
#------------------------------------------------------------------------------
STRT        .M                                       3933.9015 :START DEPTH
STOP        .M                                       4023.0555 :STOP DEPTH
STEP        .M                                          0.1524 :STEP
NULL        .                                        -999.2500 :NULL VALUE
COMP        .                                                  :COMPANY
WELL        .                                            Well5 :WELL  #15/3-5
FLD         .                                           GUDRUN :FIELD
LOC         .                                          UNKNOWN :LOCATION
CNTY        .                                          UNKNOWN :COUNTY
STAT        .                                          UNKNOWN :STATE
CTRY        .                                           Norway :COUNTRY
SRVC        .                                          UNKNOWN :SERVICE COMPANY
DATE        .                                          UNKNOWN :LOG DATE
UWI         .                                        NO 15/3-5 :UNIQUE WELL ID
XCOORD      .M                                     3105.221162 :SURFACE X  #433105.221162
YCOORD      .M                                    17057.344558 :SURFACE Y  #6517057.344558
LAT         .                                        58.786956 :LATITUDE
LON         .                                         1.842808 :LONGITUDE
ELEV        .M                                         25.0000 :SURFACE ELEV
ELEV_TYPE   .                                               KB :ELEV TYPE

~CURVE INFORMATION
#MNEMONIC   .UNIT          API CODE       : CURVE DESCRIPTION
#------------------------------------------------------------------------------
DEPTH       .M                            : Measured Depth
DEN         .g/cm3         UNKNOWN        : DEN:COMPOSITE:rC:NONE:v1
GR          .API           UNKNOWN        : GR:CPI:rC:NONE:v1
LFP_AI      .kg/m2.s       UNKNOWN        : LFP_AI:GeologLFP:r1:0001:v1
LFP_PHIT    .v/v decimal   UNKNOWN        : LFP_PHIT:GeologLFP:rC:NONE:v1
LFP_SI      .kPa.s/m       UNKNOWN        : LFP_SI:GeologLFP:r1:0001:v1
LFP_VPVS    .unitless      UNKNOWN        : LFP_VPVS:GeologLFP:r1:0001:v1
NPHI        .v/v decimal   UNKNOWN        : NPHI:CPI:rC:NONE:v1
PHIT        .v/v decimal   UNKNOWN        : PHIT:CPI:r2:0001:v1
RHOB        .g/cm3         UNKNOWN        : RHOB:CPI:rC:NONE:v1
~A     DEPTH          DEN           GR       LFP_AI     LFP_PHIT       LFP_SI     LFP_VPVS         NPHI         PHIT         RHOB 
# ...
  4000.04310     2.599110    67.842821  8999.242500     0.055303  4571.142902     1.968731     0.298265     0.057282     2.599165 
  4000.19550     2.581237    70.364087  8824.260801     0.066178  4453.164165     1.981559     0.322294     0.067959     2.581278 
  4000.34790     2.570060    67.839488  8584.610659     0.072970  4279.907006     2.005762     0.334986     0.074627     2.570099 
  4000.50030     2.569827    66.974998  8713.098935     0.073096  4378.599930     1.990038     0.342404     0.074751     2.569840 
  4000.65270     2.590735    65.852441  9401.971369     0.060383  4886.989605     1.923907     0.346746     0.062269     2.590767 
  4000.80510     2.625467    59.275223  9689.337222     0.039278  5137.893186     1.885942     0.350025     0.041550     2.625445 
  4000.95750     2.648377    55.359348 10419.642109     0.025345  5721.241036     1.821216     0.356472     0.027870     2.648301 
  4001.10990     2.648864    53.629078 10843.369159     0.025035  6067.437466     1.787122     0.357344     0.027566     2.648882 
  4001.26230     2.639814    56.737830 10239.878303     0.030541  5575.370639     1.836719     0.345807     0.032971     2.639779 
  4001.41470     2.628964    56.858169 10668.498462     0.037111  5914.805346     1.803638     0.321389     0.039421     2.629019 
  4001.56710     2.638695    58.864162 10033.919535     0.031250  5394.546070     1.860027     0.304094     0.033667     2.638689 
  4001.71950     2.632832    63.327576  9602.385217     0.034771  5022.574935     1.911922     0.312971     0.037123     2.632890 
  4001.87190     2.627950    66.389255 10031.049781     0.037763  5334.745780     1.880276     0.341094     0.040062     2.627891 
  4002.02430     2.623459    68.783715  9657.930342     0.040479  5053.490769     1.911162     0.356592     0.042728     2.623500 
  4002.17670     2.623723    69.645724  9831.712502     0.040310  5186.274086     1.895731     0.353691     0.042562     2.623729 
  4002.32910     2.638672    68.746784 10231.783833     0.031227  5478.934658     1.867492     0.350379     0.033645     2.638638 
  4002.48150     2.657917    65.711510 10347.404285     0.019523  5550.399279     1.864241     0.348165     0.022153     2.657928 
  4002.63390     2.672081    61.029569 10528.962545     0.010915  5721.510937     1.840246     0.348299     0.013696     2.672131 
  4002.78630     2.687831    57.083813 10716.483219     0.010000  5894.275402     1.818136     0.338231     0.010000     2.687810 
  4002.93870     2.692991    53.626275 10960.736776     0.010000  6116.597632     1.791992     0.322897     0.010000     2.693005 
  4003.09110     2.695595    56.434263 11167.731297     0.010000  6242.772661     1.788916     0.322182     0.010000     2.695587 
  4003.24350     2.688787    58.584317 11149.331373     0.010009  6210.262693     1.795330     0.338978     0.010015     2.688759 
  4003.39590     2.667751    61.464020 11018.150483     0.013562  6095.968750     1.807466     0.367009     0.016302     2.667728 
  4003.54830     2.630724    63.952937 10585.339831     0.036079  5769.949228     1.834493     0.384131     0.038407     2.630717 
  4003.70070     2.587952    70.666441  9972.733060     0.062089  5325.616234     1.872510     0.395794     0.063945     2.587935 
  4003.85310     2.554597    73.596276  9336.434112     0.082382  4868.642502     1.917666     0.396415     0.083867     2.554660 
  4004.00550     2.534219    69.190045  8992.671686     0.094776  4623.938257     1.944798     0.386174     0.096036     2.534286 
  4004.15790     2.526750    60.957927  8890.236999     0.099318  4573.109404     1.944063     0.374410     0.100495     2.526809 
  4004.31030     2.531359    57.701021  8920.956660     0.096510  4625.099626     1.928814     0.370676     0.097738     2.531332 
  4004.46270     2.547977    57.517903  9311.931121     0.086397  4917.137760     1.893736     0.376457     0.087809     2.547955 
  4004.61510     2.576249    61.502676  9390.739555     0.069214  4920.606947     1.908478     0.381572     0.070940     2.576247 
  4004.76750     2.600308    65.975695  9272.152806     0.054561  4778.949112     1.940193     0.378195     0.056554     2.600347 
  4004.91990     2.624594    70.500807  9385.428173     0.039822  4844.021940     1.937490     0.369615     0.042083     2.624507 
  4005.07230     2.627923    70.142487  9437.522706     0.037745  4880.849828     1.933589     0.356712     0.040044     2.627921 
  4005.22470     2.638963    66.048045  9525.004238     0.031086  4938.272981     1.928872     0.341945     0.033506     2.638889 
  4005.37710     2.632928    58.265487  9792.484109     0.034699  5218.317547     1.876533     0.329707     0.037052     2.633006 
  4005.52950     2.636131    53.788105  9934.438010     0.032749  5371.594592     1.849396     0.322474     0.035139     2.636156 
  4005.68190     2.665185    56.366513  9697.239995     0.015130  5133.812551     1.888855     0.328815     0.017834     2.665183 
  4005.83430     2.708094    62.016184  9417.198556     0.010000  4823.656684     1.952277     0.340840     0.010000     2.708004 
  4005.98670     2.710019    67.040636  9243.079555     0.010048  4659.036069     1.983822     0.348062     0.010054     2.709966 
  4006.13910     2.640763    67.869187  8929.645889     0.029936  4480.778961     1.992808     0.362805     0.032378     2.640781 
  4006.29150     2.579497    71.135411  8695.420346     0.067198  4356.188861     1.996088     0.370785     0.068960     2.579573 
  4006.44390     2.565723    73.151535  8688.068111     0.075588  4362.931562     1.991351     0.347011     0.077198     2.565737 
  4006.59630     2.584608    72.710397  8925.539379     0.064108  4527.848523     1.971338     0.308536     0.065927     2.584663 
  4006.74870     2.616926    69.028382  9276.951282     0.044471  4767.924207     1.945758     0.287783     0.046647     2.616941 
  4006.90110     2.637954    63.884983  9479.146766     0.031681  4915.090890     1.928636     0.306742     0.034090     2.637904 
  4007.05350     2.639873    61.410112  9663.375300     0.030507  5079.393994     1.902501     0.339411     0.032938     2.639883 
  4007.20590     2.631032    60.718204  9597.511427     0.035878  5043.848414     1.902792     0.365075     0.038211     2.631082 
  4007.35830     2.621773    63.538198  9720.043281     0.041506  5117.351640     1.899481     0.370910     0.043736     2.621793 
  4007.51070     2.618146    64.345682  9826.554981     0.043732  5193.644604     1.891961     0.356793     0.045921     2.618080 
  4007.66310     2.607610    65.846799  9537.693607     0.050151  4975.616472     1.916865     0.334567     0.052224     2.607547 
  4007.81550     2.580333    65.799022  9592.383529     0.066721  5041.742641     1.902641     0.322139     0.068492     2.580351 
  4007.96790     2.555210    67.671609  9774.238123     0.081994  5203.190118     1.878565     0.322662     0.083487     2.555286 
  4008.12030     2.547855    68.830358  9921.949912     0.086480  5322.838164     1.864032     0.325909     0.087891     2.547904 
  4008.27270     2.549782    66.483358 10294.690263     0.085310  5606.307461     1.836335     0.328981     0.086742     2.549807 
  4008.42510     2.553323    60.269053 10523.553691     0.083125  5814.726813     1.809818     0.331985     0.084596     2.553348 
  4008.57750     2.578090    56.481369 10298.446115     0.068093  5667.053517     1.817269     0.338406     0.069839     2.578049 
  4008.72990     2.603008    60.750918 10181.268616     0.052931  5516.304909     1.845661     0.338265     0.054952     2.603027 
  4008.88230     2.617136    65.741614 10110.854534     0.044365  5405.467969     1.870461     0.330865     0.046543     2.617074 
  4009.03470     2.603860    66.950671  9763.332115     0.052407  5151.495346     1.895198     0.322771     0.054438     2.603864 
  4009.18710     2.585160    63.510394  9659.808098     0.063776  5098.861826     1.894484     0.325125     0.065600     2.585187 
  4009.33950     2.578736    60.033719  9573.327034     0.067693  5070.996593     1.887831     0.324688     0.069446     2.578699 
