#------------------------------------------------------------------------------
#
#   Created by   : las_export
#   Created on   : 2019-11-07 11:28:03
#   Project      : GUDRUN
#   User         : MAAP
#   Interpreters : STAT, AKOLB, *
#
#------------------------------------------------------------------------------
~VERSION INFORMATION
VERS. 2.0 : CWLS Log ASCII Standard - version 2.0
WRAP.  NO : One line per depth step

~WELL INFORMATION
#MNEMONIC   .UNIT                                           VALUE :DESCRIPTION
#------------------------------------------------------------------------------
STRT        .M                                       3933.9015 :START DEPTH
STOP        .M                                       4023.0555 :STOP DEPTH
STEP        .M                                          0.1524 :STEP
NULL        .                                        -999.2500 :NULL VALUE
COMP        .                                                  :COMPANY
WELL        .                                            Well5 :WELL  #15/3-5
FLD         .                                           GUDRUN :FIELD
LOC         .                                          UNKNOWN :LOCATION
CNTY        .                                          UNKNOWN :COUNTY
STAT        .                                          UNKNOWN :STATE
CTRY        .                                           Norway :COUNTRY
SRVC        .                                          UNKNOWN :SERVICE COMPANY
DATE        .                                          UNKNOWN :LOG DATE
UWI         .                                        NO 15/3-5 :UNIQUE WELL ID
XCOORD      .M                                     3105.221162 :SURFACE X  #433105.221162
YCOORD      .M                                    17057.344558 :SURFACE Y  #6517057.344558
LAT         .                                        58.786956 :LATITUDE
LON         .                                         1.842808 :LONGITUDE
ELEV        .M                                         25.0000 :SURFACE ELEV
ELEV_TYPE   .                                               KB :ELEV TYPE

~CURVE INFORMATION
#MNEMONIC   .UNIT          API CODE       : CURVE DESCRIPTION
#------------------------------------------------------------------------------
DEPTH       .M                            : Measured Depth
DEN         .g/cm3         UNKNOWN        : DEN:COMPOSITE:rC:NONE:v1
GR          .API           UNKNOWN        : GR:CPI:rC:NONE:v1
LFP_AI      .kg/m2.s       UNKNOWN        : LFP_AI:GeologLFP:r1:0001:v1
LFP_PHIT    .v/v decimal   UNKNOWN        : LFP_PHIT:GeologLFP:rC:NONE:v1
LFP_SI      .kPa.s/m       UNKNOWN        : LFP_SI:GeologLFP:r1:0001:v1
LFP_VPVS    .unitless      UNKNOWN        : LFP_VPVS:GeologLFP:r1:0001:v1
NPHI        .v/v decimal   UNKNOWN        : NPHI:CPI:rC:NONE:v1
PHIT        .v/v decimal   UNKNOWN        : PHIT:CPI:r2:0001:v1
RHOB        .g/cm3         UNKNOWN        : RHOB:CPI:rC:NONE:v1
~A     DEPTH          DEN           GR       LFP_AI     LFP_PHIT       LFP_SI     LFP_VPVS         NPHI         PHIT         RHOB 
# ...
  3952.79910     2.582750    49.945538  9282.108223     0.065291  4957.258722     1.872481     0.360489     0.067089     2.582710 
  3952.95150     2.587736    49.620217  9858.191483     0.062256  5405.650056     1.823750     0.274523     0.064109     2.587718 
  3953.10390     2.596922    53.757073 10346.738079     0.056695  5737.611000     1.803355     0.197230     0.058650     2.596881 
  3953.25630     2.586837    55.346870 10665.815901     0.062844  5974.948473     1.785058     0.176470     0.064687     2.586822 
  3953.40870     2.546375    51.847794 10638.736988     0.087447  6017.352984     1.768048     0.192502     0.088840     2.546414 
  3953.56110     2.502311    45.750498 10527.792185     0.114254  6027.005606     1.746746     0.205016     0.115169     2.502341 
  3953.71350     2.471951    42.127548 10602.951843     0.128298  6147.356636     1.724816     0.198531     0.133303     2.471982 
  3953.86590     2.463014    42.560314 10483.417648     0.133714  6054.909939     1.731392     0.183161     0.138687     2.462964 
  3954.01830     2.444192    46.100793 10011.005505     0.149648  5659.223739     1.768934     0.172549     0.149907     2.444163 
  3954.17070     2.425305    51.993374 10051.082120     0.161148  5637.805035     1.782778     0.181493     0.161197     2.425279 
  3954.32310     2.414705    57.517112  9845.680250     0.167612  5425.653783     1.814671     0.215991     0.167543     2.414677 
  3954.47550     2.402864    59.083810  9508.682999     0.174801  5157.362349     1.843703     0.261417     0.174601     2.402895 
  3954.62790     2.400100    59.743566  9517.393401     0.176488  5158.648748     1.844964     0.295076     0.176257     2.400113 
  3954.78030     2.406663    60.378546  9250.783312     0.172413  4944.256202     1.871118     0.301559     0.172257     2.406726 
  3954.93270     2.471919    59.037178  9768.522874     0.132675  5316.612333     1.837449     0.287198     0.133243     2.471969 
  3955.08510     2.610866    55.447659 10896.415358     0.048279  6136.109510     1.775855     0.265474     0.050379     2.610863 
  3955.23750     2.797978    51.903361 11836.680738     0.010000  6735.234276     1.757458     0.252698     0.010000     2.797709 
  3955.38990     2.853628    50.724727 12334.174425     0.010000  7086.631743     1.740442     0.254407     0.010000     2.853522 
  3955.54230     2.761982    49.934377 11576.152769     0.010035  6586.486088     1.757498     0.265597     0.010041     2.761982 
  3955.69470     2.649859    50.125818 11113.470748     0.024392  6325.875116     1.756780     0.274863     0.026935     2.649996 
  3955.84710     2.596247    50.588398 11056.499357     0.057062  6323.361410     1.748481     0.275481     0.059010     2.596272 
  3955.99950     2.582132    51.084119 11173.142512     0.065669  6418.067275     1.740871     0.266091     0.067459     2.582092 
  3956.15190     2.577886    47.512711 11183.773293     0.068252  6468.632612     1.728895     0.245059     0.069996     2.577899 
  3956.30430     2.577173    43.235648 10989.076834     0.068689  6364.163540     1.726698     0.223133     0.070424     2.577201 
  3956.45670     2.577845    39.383677 10797.911092     0.068258  6255.773871     1.726019     0.208714     0.070001     2.577830 
  3956.60910     2.593372    38.316505 10660.905550     0.058834  6148.054807     1.734005     0.208669     0.060749     2.593327 
  3956.76150     2.606909    38.469555 10684.209369     0.050608  6154.776811     1.735890     0.207964     0.052673     2.606886 
  3956.91390     2.599810    38.245871 10721.538730     0.054918  6191.872171     1.731594     0.213088     0.056905     2.599763 
  3957.06630     2.580714    38.634223 10715.577903     0.066535  6197.173154     1.729072     0.228997     0.068310     2.580763 
  3957.21870     2.561660    38.345341 10835.648141     0.078106  6308.991951     1.717492     0.235161     0.079670     2.561707 
  3957.37110     2.565377    39.072924 10948.255057     0.075888  6386.788320     1.714156     0.231665     0.077492     2.565299 
  3957.52350     2.564687    40.043051 10598.470874     0.076296  6101.317713     1.737043     0.231510     0.077893     2.564681 
  3957.67590     2.554732    41.020099 10329.875959     0.082361  5887.070550     1.754645     0.238119     0.083847     2.554768 
  3957.82830     2.538178    38.645503 10514.038283     0.092415  6069.694002     1.732224     0.240369     0.093718     2.538187 
  3957.98070     2.531691    33.458650 10751.768169     0.096348  6320.073851     1.701235     0.214428     0.097579     2.531737 
  3958.13310     2.550863    29.656309 11118.353109     0.084680  6639.614745     1.674584     0.178544     0.086124     2.550878 
  3958.28550     2.591057    27.798299 11306.474279     0.060240  6778.793427     1.667937     0.148556     0.062129     2.591066 
  3958.43790     2.625235    27.088278 11100.545075     0.039462  6595.077200     1.683112     0.142110     0.041731     2.625201 
  3958.59030     2.625469    24.255583 10860.785975     0.039299  6434.611287     1.687901     0.156884     0.041570     2.625462 
  3958.74270     2.606096    21.930869 10648.503709     0.051075  6306.207506     1.688512     0.166413     0.053132     2.606071 
  3958.89510     2.590887    20.960949 10452.118687     0.060343  6172.140487     1.693400     0.159781     0.062230     2.590875 
  3959.04750     2.578305    21.691678 10439.240568     0.068015  6164.433270     1.693500     0.146272     0.069763     2.578258 
  3959.19990     2.556474    22.390523 10389.542570     0.081294  6135.174223     1.693420     0.143214     0.082800     2.556451 
  3959.35230     2.531156    25.227179 10297.694193     0.096703  6051.098406     1.701782     0.151941     0.097928     2.531158 
  3959.50470     2.509564    29.245954  9889.768514     0.109832  5699.314408     1.735185     0.160810     0.110824     2.509575 
  3959.65710     2.496928    32.038987  9489.533550     0.114421  5361.871462     1.769801     0.166543     0.118400     2.496863 
  3959.80950     2.477910    31.726861  9402.856161     0.125878  5311.122798     1.770422     0.172259     0.129741     2.477957 
  3959.96190     2.456083    29.994960  9134.921857     0.138986  5134.356982     1.779170     0.178087     0.137818     2.456106 
  3960.11430     2.459081    29.118241  9263.463275     0.136981  5243.466580     1.766730     0.183823     0.135879     2.459196 
  3960.26670     2.508597    28.486188  9808.483063     0.110388  5643.958266     1.737954     0.206620     0.111363     2.508664 
  3960.41910     2.592869    28.990603 10436.345271     0.059132  6071.078408     1.719026     0.245448     0.061042     2.592845 
  3960.57150     2.667534    32.882794 10749.848583     0.013748  6214.803261     1.729750     0.287462     0.016478     2.667467 
  3960.72390     2.701963    41.752090 11014.002356     0.010000  6292.504911     1.750375     0.309500     0.010000     2.701827 
  3960.87630     2.664089    51.467698 10836.003123     0.010000  6084.645036     1.780846     0.309194     0.010000     2.663862 
  3961.02870     2.489895    57.603270 10050.460508     0.010000  5583.685159     1.799826     0.315340     0.010000     2.489753 
  3961.18110     2.208144    57.836068  8703.355001     0.010000  4806.699212     1.810531     0.322568     0.010000     2.208344 
  3961.33350     1.973608    55.646923  7061.541650     0.010000  3787.566160     1.864304     0.340053     0.010000     1.973731 
  3961.48590     1.835313    50.660601  5911.537376     0.010000  3034.677336     1.947924     0.361870     0.010000     1.835367 
  3961.63830     1.766956    41.483818  5196.803064     0.010000  2547.669923     2.039742     0.406545     0.010000     1.766989 
  3961.79070     1.710121    29.710416  4624.474423     0.010000  2204.199296     2.097920     0.459873     0.010000     1.710079 
  3961.94310     1.647607    23.279372  4218.710177     0.010000  1964.836729     2.147064     0.501722     0.010000     1.647491 
  3962.09550     1.539996    22.866306  3779.819796     0.010000  1707.236826     2.213950     0.534580     0.010000     1.540197 
