~Version Information Block
VERS .                 2.00:  CWLS LOG ASCII STANDARD - VERSION 2.00
WRAP .                   NO:  One line per depth step
~Well Information
#----------------- ----------------- -----------------------
STRT               .m     3814.57272 :  Top Depth
STOP               .m     3864.25512 :  Bottom Depth
STEP               .m        0.15240 :  Increment
NULL               .      -999.25000 :  Null Value
WELL               .           Well4 :  Well #15/3-4
FLD                .          Sigrun :  Field
COMP               .         Equinor :  Company
LOC                .       North Sea :  Location
XCOORD             .m    5502.736820 :  Surface X  #435502.736820
YCOORD             .m   20489.030294 :  Surface Y  #6520489.030294
LAT                .       58.818133 :  Latitude
LON                .        1.883283 :  Longitude
ELEV               .m       25.00000 :  Elevation
~Curve Information
#----------------- ----------------- -----------------------
DEPTH              .m                :  Depth      (Equinor)
TVD                .m                :  TVD        (Baville)
DEN                .g/cm3            :  CPI DEN    (Equinor)
GR                 .API              :  CPI GR     (Equinor)
LFP_AI             .kg/m2.s          :  LFP AI     (Equinor)
LFP_PHIT           .V/V              :  LFP PHIT   (Equinor)
LFP_SI             .kPa.s/m          :  LFP SI     (Equinor)
LFP_VPVS           .unitless         :  LFP VPVS   (Equinor)
NPHI               .V/V              :  CPI NPHI   (Equinor)
PHIT               .V/V              :  CPI PHIT   (Equinor)
RHOB               .g/cm3            :  CPI RHOB   (Equinor)
~Parameter Information
#---------------------
~Other Information
#---------------------
~Ascii
# ...
3838.65192	3813.65192	2.69667	63.48321	8980.15437	0.01000	4469.81217	2.00922	0.32316	0.01000	2.69723
3838.80432	3813.80432	2.68655	59.98797	9248.80977	0.01001	4703.68728	1.96631	0.30575	0.01003	2.68155
3838.95672	3813.95672	2.67359	64.00178	9247.13394	0.01226	4697.72895	1.96836	0.32331	0.01504	2.66986
3839.10912	3814.10912	2.66456	64.36534	9141.79891	0.01703	4624.01178	1.97701	0.33688	0.01972	2.66205
3839.26152	3814.26152	2.65539	62.34573	8963.21298	0.02299	4496.12484	1.99349	0.32955	0.02557	2.65225
3839.41392	3814.41392	2.64566	62.75951	8814.76528	0.02886	4391.27116	2.00736	0.32136	0.03131	2.64268
3839.56632	3814.56632	2.65465	64.77021	8794.52023	0.01815	4359.96967	2.01707	0.33606	0.02080	2.66026
3839.71872	3814.71872	2.66951	69.00089	8636.08505	0.01000	4227.01939	2.04312	0.36142	0.01266	2.67382
3839.87112	3814.87112	2.67647	69.17888	8739.40616	0.01002	4302.13012	2.03133	0.38138	0.01038	2.67765
3840.02352	3815.02352	2.66969	67.36044	8448.89708	0.01460	4090.81053	2.06538	0.38722	0.01730	2.66606
3840.17592	3815.17592	2.67401	64.29021	8614.58518	0.01000	4207.22763	2.04765	0.38897	0.01033	2.67773
3840.32832	3815.32832	2.68174	59.62084	8740.45263	0.01006	4314.76220	2.02555	0.34904	0.01010	2.68346
3840.48072	3815.48072	2.66354	58.75505	8338.74007	0.02179	4039.79440	2.06399	0.33145	0.02439	2.65426
3840.63312	3815.63312	2.64896	59.81101	7971.74761	0.02650	3755.10489	2.12293	0.31311	0.02900	2.64655
3840.78552	3815.78552	2.65314	59.47014	7958.92590	0.02052	3742.08294	2.12713	0.33840	0.02310	2.65639
3840.93792	3815.93792	2.68433	53.21642	8359.57254	0.01000	4066.83022	2.05579	0.34178	0.01000	2.69722
3841.09032	3816.09032	2.68525	52.73039	8880.83313	0.01000	4489.05864	1.97865	0.33785	0.01000	2.67974
3841.24272	3816.24272	2.68504	55.17938	9485.72157	0.01000	4925.60131	1.92594	0.32910	0.01000	2.68746
3841.39512	3816.39512	2.68216	60.02422	9912.91316	0.01000	5212.45527	1.90159	0.32904	0.01000	2.67976
3841.54752	3816.54752	2.68771	58.55388	9428.16234	0.01007	4845.12274	1.94581	0.31586	0.01010	2.69122
3841.69992	3816.69992	2.66464	56.75119	9211.71176	0.02302	4729.60250	1.94755	0.30467	0.02561	2.65221
3841.85232	3816.85232	2.63895	57.02749	8960.81923	0.03482	4547.26774	1.97061	0.29986	0.03716	2.63287
3842.00472	3817.00472	2.64218	62.76902	9126.73039	0.02647	4626.30308	1.97275	0.31220	0.02896	2.64659
3842.15712	3817.15712	2.65985	60.20632	8956.21789	0.01460	4490.91887	1.99443	0.35170	0.01730	2.66617
3842.30952	3817.30952	2.69010	57.56364	9359.25541	0.01000	4793.71072	1.95276	0.37930	0.01000	2.70131
3842.46192	3817.46192	2.71722	51.25416	10059.37671	0.01000	5373.49735	1.87205	0.36000	0.01000	2.72466
3842.61432	3817.61432	2.73261	52.12381	10226.11324	0.01000	5483.14224	1.86504	0.28604	0.01000	2.73628
3842.76672	3817.76672	2.73363	51.85970	10313.70168	0.01000	5556.92271	1.85602	0.26576	0.01000	2.73234
3842.91912	3817.91912	2.72302	48.63614	10286.68890	0.01000	5581.53244	1.84305	0.29445	0.01000	2.71882
3843.07152	3818.07152	2.72144	44.40496	10407.07141	0.01000	5716.12596	1.82074	0.29764	0.01000	2.72273
3843.22392	3818.22392	2.72667	37.58013	10664.54378	0.01000	5985.80845	1.78183	0.25368	0.01000	2.72846
3843.37632	3818.37632	2.72316	34.71449	11155.31008	0.01000	6410.87382	1.74045	0.20593	0.01000	2.72087
3843.52872	3818.52872	2.74480	33.81622	12286.46061	0.01000	7280.47155	1.68768	0.18004	0.01000	2.75610
3843.68112	3818.68112	2.78527	34.60777	12597.35122	0.01000	7478.78077	1.68467	0.15076	0.01000	2.79929
3843.83352	3818.83352	2.86965	37.55081	13784.40727	0.01000	8282.49458	1.66444	0.12546	0.01000	2.90222
3843.98592	3818.98592	2.89032	41.69944	14269.64901	0.01000	8618.67715	1.65544	0.11882	0.01000	2.88446
3844.13832	3819.13832	2.83531	50.76114	13070.87471	0.01000	7655.27438	1.70726	0.15305	0.01000	2.81206
3844.29072	3819.29072	2.74829	53.12975	12148.81261	0.01000	7012.91948	1.73213	0.19743	0.01000	2.71867
3844.44312	3819.44312	2.70001	60.66705	11301.03643	0.01000	6340.39072	1.78220	0.23064	0.01000	2.69137
3844.59552	3819.59552	2.68736	62.96127	10416.97772	0.01000	5608.67652	1.85721	0.26571	0.01000	2.68551
3844.74792	3819.74792	2.68687	67.93156	9965.77887	0.01000	5232.15186	1.90461	0.28282	0.01000	2.68745
3844.90032	3819.90032	2.68079	66.68839	9745.57097	0.01002	5072.30825	1.92135	0.30418	0.01038	2.67765
3845.05272	3820.05272	2.66969	66.87262	9790.77939	0.01465	5117.36342	1.91323	0.29981	0.01739	2.66595
3845.20512	3820.20512	2.65929	66.36846	9873.50659	0.02055	5189.17919	1.90270	0.29975	0.02316	2.65624
3845.35752	3820.35752	2.66161	64.98871	9880.41138	0.01578	5194.52302	1.90208	0.28800	0.01846	2.66423
3845.50992	3820.50992	2.68279	62.63020	9980.92621	0.01000	5257.21661	1.89847	0.27000	0.01000	2.69145
3845.66232	3820.66232	2.69811	63.72251	9896.45877	0.01000	5184.80561	1.90868	0.26516	0.01000	2.70117
3845.81472	3820.81472	2.69716	64.51308	9758.07958	0.01000	5080.03026	1.92084	0.27021	0.01000	2.69523
3845.96712	3820.96712	2.68462	67.24970	9702.02737	0.01000	5037.23416	1.92606	0.31057	0.01002	2.67967
3846.11952	3821.11952	2.67566	67.15318	9754.30911	0.01001	5082.82523	1.91920	0.31558	0.01268	2.67379
3846.27192	3821.27192	2.67250	59.92348	10034.02360	0.01104	5313.76715	1.88857	0.34756	0.01383	2.67191
3846.42432	3821.42432	2.67320	50.36336	10677.07733	0.01000	5906.71158	1.80816	0.32650	0.01265	2.67398
3846.57672	3821.57672	2.69920	34.80472	11980.12332	0.01000	7066.76160	1.69560	0.29252	0.01000	2.71101
3846.72912	3821.72912	2.72699	26.59454	12991.71708	0.01000	7950.01227	1.63457	0.19933	0.01000	2.73443
3846.88152	3821.88152	2.73837	20.23202	14503.87098	0.01000	9235.65434	1.57045	0.12036	0.01000	2.74009
3847.03392	3822.03392	2.72418	23.04636	14892.85657	0.01000	9523.80010	1.56369	0.06983	0.01000	2.71683
3847.18632	3822.18632	2.72084	32.81983	14401.38507	0.01000	9037.49600	1.59322	0.07042	0.01000	2.72272
3847.33872	3822.33872	2.72537	47.49827	12827.11149	0.01000	7737.02420	1.65767	0.09264	0.01000	2.72663
3847.49112	3822.49112	2.73057	60.22950	11219.69678	0.01000	6323.48800	1.77412	0.16608	0.01000	2.73241
3847.64352	3822.64352	2.73377	62.45364	9874.70584	0.01000	5119.56871	1.92868	0.28156	0.01000	2.73459
3847.79592	3822.79592	2.76247	59.24495	9244.39088	0.01000	4623.06124	2.00026	0.34610	0.01000	2.77557
3847.94832	3822.94832	2.79943	51.64417	10378.99439	0.01000	5540.02451	1.87373	0.32589	0.01000	2.81052
3848.10072	3823.10072	2.81324	49.13808	11034.55160	0.01000	6070.53564	1.81777	0.26651	0.01000	2.81427
3848.25312	3823.25312	2.78103	51.88941	11276.94315	0.01000	6270.20789	1.79852	0.24669	0.01000	2.76544
3848.40552	3823.40552	2.74157	54.91526	11243.73968	0.01000	6241.25026	1.80136	0.26951	0.01000	2.73038
3848.55792	3823.55792	2.71311	56.79631	10655.50226	0.01000	5791.37624	1.83988	0.26513	0.01000	2.70511
3848.71032	3823.71032	2.70640	53.40665	10551.97464	0.01000	5745.35317	1.83658	0.26363	0.01000	2.70696
3848.86272	3823.86272	2.70166	53.51501	10364.55804	0.01000	5606.47955	1.84864	0.25398	0.01000	2.69925
3849.01512	3824.01512	2.70591	56.67670	10272.60173	0.01000	5494.44894	1.86958	0.26958	0.01000	2.70907
3849.16752	3824.16752	2.71838	60.98826	10172.11007	0.01000	5361.33200	1.89719	0.27938	0.01000	2.72265
3849.31992	3824.31992	2.71462	65.06309	9657.16764	0.01000	4975.15151	1.94104	0.29642	0.01000	2.71077
3849.47232	3824.47232	2.69221	65.16001	9648.53419	0.01037	4992.71161	1.93227	0.30378	0.01050	2.68298
3849.62472	3824.62472	2.59400	59.33741	9042.47202	0.08410	4651.71690	1.94351	0.31759	0.08569	2.55204
3849.77712	3824.77712	2.45646	44.86604	8026.19130	0.16978	4095.14801	1.95965	0.36011	0.16993	2.41130
3849.92952	3824.92952	2.29580	29.85472	7317.96839	0.24802	3808.73438	1.92123	0.30924	0.26673	2.24200
3850.08192	3825.08192	2.21277	19.06079	7088.86151	0.26682	3770.46244	1.88012	0.24074	0.29306	2.19922
3850.23432	3825.23432	2.20187	15.43182	7132.69056	0.25791	3850.65262	1.85262	0.14301	0.29131	2.20352
3850.38672	3825.38672	2.26464	14.25605	7789.70739	0.21073	4302.22018	1.81084	0.13043	0.23822	2.29318
3850.53912	3825.53912	2.31840	17.17098	8319.71504	0.19254	4696.20479	1.77166	0.14162	0.21612	2.33020
