#------------------------------------------------------------------------------
#
#   Created by   : las_export
#   Created on   : 2019-11-07 11:28:03
#   Project      : GUDRUN
#   User         : MAAP
#   Interpreters : STAT, AKOLB, *
#
#------------------------------------------------------------------------------
~VERSION INFORMATION
VERS. 2.0 : CWLS Log ASCII Standard - version 2.0
WRAP.  NO : One line per depth step

~WELL INFORMATION
#MNEMONIC   .UNIT                                           VALUE :DESCRIPTION
#------------------------------------------------------------------------------
STRT        .M                                       3933.9015 :START DEPTH
STOP        .M                                       4023.0555 :STOP DEPTH
STEP        .M                                          0.1524 :STEP
NULL        .                                        -999.2500 :NULL VALUE
COMP        .                                                  :COMPANY
WELL        .                                            Well5 :WELL  #15/3-5
FLD         .                                           GUDRUN :FIELD
LOC         .                                          UNKNOWN :LOCATION
CNTY        .                                          UNKNOWN :COUNTY
STAT        .                                          UNKNOWN :STATE
CTRY        .                                           Norway :COUNTRY
SRVC        .                                          UNKNOWN :SERVICE COMPANY
DATE        .                                          UNKNOWN :LOG DATE
UWI         .                                        NO 15/3-5 :UNIQUE WELL ID
XCOORD      .M                                     3105.221162 :SURFACE X  #433105.221162
YCOORD      .M                                    17057.344558 :SURFACE Y  #6517057.344558
LAT         .                                        58.786956 :LATITUDE
LON         .                                         1.842808 :LONGITUDE
ELEV        .M                                         25.0000 :SURFACE ELEV
ELEV_TYPE   .                                               KB :ELEV TYPE

~CURVE INFORMATION
#MNEMONIC   .UNIT          API CODE       : CURVE DESCRIPTION
#------------------------------------------------------------------------------
DEPTH       .M                            : Measured Depth
DEN         .g/cm3         UNKNOWN        : DEN:COMPOSITE:rC:NONE:v1
GR          .API           UNKNOWN        : GR:CPI:rC:NONE:v1
LFP_AI      .kg/m2.s       UNKNOWN        : LFP_AI:GeologLFP:r1:0001:v1
LFP_PHIT    .v/v decimal   UNKNOWN        : LFP_PHIT:GeologLFP:rC:NONE:v1
LFP_SI      .kPa.s/m       UNKNOWN        : LFP_SI:GeologLFP:r1:0001:v1
LFP_VPVS    .unitless      UNKNOWN        : LFP_VPVS:GeologLFP:r1:0001:v1
NPHI        .v/v decimal   UNKNOWN        : NPHI:CPI:rC:NONE:v1
PHIT        .v/v decimal   UNKNOWN        : PHIT:CPI:r2:0001:v1
RHOB        .g/cm3         UNKNOWN        : RHOB:CPI:rC:NONE:v1
~A     DEPTH          DEN           GR       LFP_AI     LFP_PHIT       LFP_SI     LFP_VPVS         NPHI         PHIT         RHOB 
# ...
  3962.24790     1.487064    24.233675  3623.130233     0.010000  1621.622003     2.234267     0.538020     0.010000     1.487192 
  3962.40030     1.534647    27.198742  3716.980978     0.010000  1643.563835     2.261634     0.527410     0.010000     1.534828 
  3962.55270     1.703628    32.320304  4070.736830     0.010000  1757.440383     2.316480     0.506664     0.010000     1.703544 
  3962.70510     1.880803    42.498816  4653.546697     0.010000  2016.165844     2.308295     0.521494     0.010000     1.880669 
  3962.85750     1.967621    50.105043  5197.065806     0.010000  2337.114787     2.224010     0.529560     0.010000     1.967740 
  3963.00990     2.091512    51.331570  6236.476208     0.010000  3021.707665     2.064248     0.519471     0.010000     2.091589 
  3963.16230     2.291932    50.162188  7760.805813     0.010000  4042.294785     1.920136     0.458778     0.010000     2.291867 
  3963.31470     2.480661    51.726359  9112.514874     0.010198  4917.277533     1.853218     0.381776     0.010201     2.480417 
  3963.46710     2.540500    57.141524  9580.945179     0.091001  5149.775976     1.860466     0.309689     0.092330     2.540520 
  3963.61950     2.550986    58.607807  9840.103942     0.084610  5328.409701     1.846673     0.257462     0.086055     2.551039 
  3963.77190     2.570990    56.145149  9438.941781     0.072473  5029.521065     1.876667     0.241011     0.074140     2.570903 
  3963.92430     2.572568    55.864053  8750.959868     0.071325  4498.809044     1.945127     0.270604     0.073006     2.572482 
  3964.07670     2.511576    53.611318  7709.531411     0.010000  3782.411731     2.038188     0.322523     0.010000     2.511431 
  3964.22910     2.372793    45.645638  6492.538348     0.010000  3011.030479     2.156120     0.386637     0.010000     2.372615 
  3964.38150     2.122643    32.313803  5396.558551     0.010000  2447.233498     2.205006     0.452619     0.010000     2.122581 
  3964.53390     1.803918    21.641412  4426.947007     0.010000  2005.262290     2.207526     0.500538     0.010000     1.804090 
  3964.68630     1.541695    16.411325  3734.439340     0.010000  1683.341184     2.218321     0.522484     0.010000     1.541924 
  3964.83870     1.399809    14.007643  3374.086221     0.010000  1515.096412     2.226909     0.525574     0.010000     1.399942 
  3964.99110     1.370018    12.926669  3295.947680     0.010000  1477.794002     2.230422     0.524726     0.010000     1.370178 
  3965.14350     1.462118    14.933319  3499.923784     0.010000  1563.049154     2.239353     0.523912     0.010000     1.462344 
  3965.29590     1.691271    19.942220  4005.367573     0.010000  1771.592730     2.261231     0.520235     0.010000     1.691507 
  3965.44830     2.107222    29.830480  5110.551624     0.010000  2248.096107     2.273628     0.536265     0.010000     2.106972 
  3965.60070     2.452757    39.491496  6383.757148     0.010184  2897.608713     2.203340     0.531367     0.010188     2.452389 
  3965.75310     2.549627    46.184489  7341.311011     0.085444  3501.626856     2.096828     0.477714     0.086873     2.549625 
  3965.90550     2.562409    48.396740  8474.393065     0.077662  4358.364856     1.944579     0.380586     0.079234     2.562431 
  3966.05790     2.578186    50.585985  9489.007949     0.068063  5117.517850     1.854287     0.300491     0.069810     2.578228 
  3966.21030     2.592840    53.296090 10234.121292     0.059127  5659.970927     1.808162     0.264831     0.061037     2.592843 
  3966.36270     2.615267    54.145984 10576.412998     0.045470  5899.302713     1.792795     0.255154     0.047629     2.615271 
  3966.51510     2.651926    53.996047 10765.586083     0.023195  6012.159759     1.790667     0.259531     0.025753     2.651879 
  3966.66750     2.692371    58.910905 10758.972524     0.010000  5917.172864     1.818234     0.269699     0.010000     2.692338 
  3966.81990     2.711781    65.207270 10932.698866     0.010000  5966.820579     1.832252     0.279475     0.010000     2.711816 
  3966.97230     2.720013    68.205027 10737.376012     0.010000  5793.246412     1.853427     0.289562     0.010000     2.719994 
  3967.12470     2.717014    65.895383 10537.826467     0.010000  5652.676903     1.864240     0.301011     0.010000     2.716977 
  3967.27710     2.705228    61.859490 10642.589216     0.010011  5785.246681     1.839579     0.310935     0.010017     2.705225 
  3967.42950     2.666402    59.323128 10491.448935     0.014356  5730.203655     1.830882     0.319067     0.017082     2.666431 
  3967.58190     2.631074    50.617636 10628.995251     0.035872  5963.334767     1.782469     0.334735     0.038206     2.631052 
  3967.73430     2.606283    41.865737 10969.198274     0.050955  6344.333972     1.728939     0.357115     0.053014     2.606270 
  3967.88670     2.590651    32.675654 10875.224305     0.060510  6381.914624     1.704013     0.374213     0.062394     2.590636 
  3968.03910     2.557893    30.692957 10550.787778     0.080422  6171.519522     1.709567     0.340135     0.081943     2.557925 
  3968.19150     2.519311    31.731694 10020.022235     0.103887  5768.912133     1.736900     0.282628     0.104981     2.519360 
  3968.34390     2.498873    33.897519  9475.239947     0.116320  5330.351103     1.777632     0.229534     0.117187     2.498908 
  3968.49630     2.502777    36.732635  9444.350006     0.113953  5273.953433     1.790809     0.198623     0.114863     2.502834 
  3968.64870     2.520272    40.888539  9638.836388     0.103325  5371.667466     1.794359     0.169360     0.104428     2.520220 
  3968.80110     2.530518    47.551568  9654.941320     0.097092  5309.594294     1.818435     0.133629     0.098310     2.530491 
  3968.95350     2.525891    49.795776  9557.690338     0.099910  5214.611647     1.832811     0.109686     0.101076     2.525865 
  3969.10590     2.507765    48.255316  9386.735065     0.110930  5109.244691     1.837231     0.103253     0.111895     2.507763 
  3969.25830     2.488496    38.735491  9259.346428     0.122659  5118.603624     1.808971     0.103862     0.123407     2.488461 
  3969.41070     2.468210    28.149266  9389.211640     0.132432  5346.812482     1.756071     0.108586     0.131410     2.468256 
  3969.56310     2.445378    18.920567  9642.998558     0.146797  5661.553975     1.703192     0.109918     0.145173     2.445361 
  3969.71550     2.425355    15.736212  9614.768934     0.159469  5655.916857     1.699923     0.108995     0.157473     2.425374 
  3969.86790     2.411864    16.603540  9417.421292     0.167901  5508.779659     1.709521     0.112176     0.165658     2.411885 
  3970.02030     2.403868    19.798265  9273.211869     0.172745  5396.791663     1.718257     0.116346     0.170358     2.403896 
  3970.17270     2.401732    22.803501  9090.685289     0.173913  5219.358477     1.741753     0.130928     0.171531     2.401709 
  3970.32510     2.406063    25.125348  8937.020227     0.171106  5068.128621     1.763338     0.147766     0.168841     2.406127 
  3970.47750     2.420031    28.984880  8969.458921     0.162396  5042.388424     1.778891     0.161693     0.160468     2.420088 
  3970.62990     2.465484    35.424418  9465.308027     0.134497  5332.584999     1.775120     0.171159     0.137110     2.465556 
  3970.78230     2.545869    40.918847 10481.487351     0.087697  6015.679140     1.742487     0.183004     0.089087     2.545888 
  3970.93470     2.642742    42.699553 11794.511035     0.028841  6953.814352     1.696207     0.193916     0.031296     2.642592 
  3971.08710     2.690045    40.611074 12787.495571     0.010000  7711.469033     1.658272     0.189289     0.010000     2.690012 
  3971.23950     2.695936    39.545665 13041.930935     0.010011  7919.757105     1.646764     0.175333     0.010018     2.695842 
  3971.39190     2.665983    41.746712 12379.811374     0.014630  7399.878861     1.672964     0.159461     0.017352     2.666017 
  3971.54430     2.623052    44.827436 11760.832627     0.040733  6921.375280     1.699146     0.147224     0.042979     2.623055 
