~Version Information Block
VERS .                 2.00:  CWLS LOG ASCII STANDARD - VERSION 2.00
WRAP .                   NO:  One line per depth step
~Well Information
#----------------- ----------------- -----------------------
STRT               .m     3814.57272 :  Top Depth
STOP               .m     3864.25512 :  Bottom Depth
STEP               .m        0.15240 :  Increment
NULL               .      -999.25000 :  Null Value
WELL               .           Well4 :  Well #15/3-4
FLD                .          Sigrun :  Field
COMP               .         Equinor :  Company
LOC                .       North Sea :  Location
XCOORD             .m    5502.736820 :  Surface X  #435502.736820
YCOORD             .m   20489.030294 :  Surface Y  #6520489.030294
LAT                .       58.818133 :  Latitude
LON                .        1.883283 :  Longitude
ELEV               .m       25.00000 :  Elevation
~Curve Information
#----------------- ----------------- -----------------------
DEPTH              .m                :  Depth      (Equinor)
TVD                .m                :  TVD        (Baville)
DEN                .g/cm3            :  CPI DEN    (Equinor)
GR                 .API              :  CPI GR     (Equinor)
LFP_AI             .kg/m2.s          :  LFP AI     (Equinor)
LFP_PHIT           .V/V              :  LFP PHIT   (Equinor)
LFP_SI             .kPa.s/m          :  LFP SI     (Equinor)
LFP_VPVS           .unitless         :  LFP VPVS   (Equinor)
NPHI               .V/V              :  CPI NPHI   (Equinor)
PHIT               .V/V              :  CPI PHIT   (Equinor)
RHOB               .g/cm3            :  CPI RHOB   (Equinor)
~Parameter Information
#---------------------
~Other Information
#---------------------
~Ascii
3814.57272	3789.57272	2.43483	17.50349	9864.91351	0.14192	5823.43475	1.69396	0.12108	0.15327	2.43362
3814.72512	3789.72512	2.43627	18.23009	9751.37208	0.13981	5725.78388	1.70300	0.11769	0.15102	2.43747
3814.87752	3789.87752	2.43346	17.33449	9704.85283	0.14291	5698.89585	1.70299	0.12015	0.15448	2.43162
3815.02992	3790.02992	2.43427	18.68067	9824.18740	0.14086	5775.25885	1.70102	0.12794	0.15219	2.43548
3815.18232	3790.18232	2.43283	20.53350	9783.92132	0.14302	5740.21288	1.70445	0.12893	0.15449	2.43159
3815.33472	3790.33472	2.43030	24.28284	9695.95436	0.14430	5664.82965	1.71153	0.13332	0.15554	2.42966
3815.48712	3790.48712	2.42436	24.62961	9586.00412	0.14876	5583.81620	1.71669	0.13627	0.16001	2.42186
3815.63952	3790.63952	2.41656	25.59699	9411.22968	0.15318	5440.65984	1.72981	0.14504	0.16443	2.41415
3815.79192	3790.79192	2.42074	26.28722	9502.65887	0.14811	5490.17489	1.73089	0.14942	0.15842	2.42387
3815.94432	3790.94432	2.43455	30.82572	9633.57522	0.13975	5569.01358	1.72989	0.14988	0.14900	2.43958
3816.09672	3791.09672	2.45148	33.60881	9757.64929	0.13028	5647.10270	1.72785	0.14598	0.13842	2.45708
3816.24912	3791.24912	2.46905	36.76189	9747.78323	0.12082	5616.19467	1.73565	0.14357	0.12789	2.47461
3816.40152	3791.40152	2.47597	39.27942	9678.43095	0.11978	5553.79804	1.74277	0.14599	0.12664	2.47667
3816.55392	3791.55392	2.48728	45.46439	9842.24912	0.11127	5661.90173	1.73836	0.14452	0.12133	2.49230
3816.70632	3791.70632	2.50692	51.10702	10057.22071	0.09947	5805.41429	1.73249	0.14107	0.10843	2.51385
3816.85872	3791.85872	2.53506	53.87946	10239.75824	0.08847	5916.80801	1.73065	0.13283	0.08985	2.54490
3817.01112	3792.01112	2.54490	54.81220	10156.36978	0.08849	5845.59766	1.73746	0.13572	0.08987	2.54487
3817.16352	3792.16352	2.54093	54.74733	10157.95359	0.09204	5864.36759	1.73210	0.13086	0.09334	2.53911
3817.31592	3792.31592	2.54040	54.19567	10166.86487	0.09076	5868.38389	1.73259	0.13085	0.09206	2.54115
3817.46832	3792.46832	2.56243	55.92195	10402.50120	0.07171	6010.44914	1.73076	0.12897	0.07336	2.57244
3817.62072	3792.62072	2.59236	59.26204	10573.02872	0.05385	6076.25336	1.74010	0.14265	0.05583	2.60173
3817.77312	3792.77312	2.62029	68.34281	10630.36444	0.03723	6054.68329	1.75569	0.15741	0.03953	2.62895
3817.92552	3792.92552	2.63561	74.69879	10556.20774	0.03129	5918.54068	1.78361	0.19445	0.03371	2.63871
3818.07792	3793.07792	2.64000	77.05240	10511.71829	0.03011	5840.11048	1.79986	0.21838	0.03255	2.64060
3818.23032	3793.23032	2.64060	74.90987	10351.34209	0.03012	5673.30605	1.82457	0.24368	0.03257	2.64058
3818.38272	3793.38272	2.63793	69.12649	10228.52841	0.03248	5573.43245	1.83515	0.24954	0.03488	2.63671
3818.53512	3793.53512	2.63807	69.44404	9983.03893	0.03132	5372.59594	1.85810	0.25489	0.03374	2.63867
3818.68752	3793.68752	2.63466	70.84816	9959.32670	0.03486	5358.09205	1.85862	0.25685	0.03721	2.63282
3818.83992	3793.83992	2.63547	78.32706	9616.72995	0.03253	5083.19292	1.89180	0.26029	0.03494	2.63664
3818.99232	3793.99232	2.62732	81.36995	9432.73090	0.04085	4945.83978	1.90717	0.26863	0.04310	2.62297
3819.14472	3794.14472	2.61903	80.24089	9235.18018	0.04439	4777.18214	1.93313	0.28426	0.04657	2.61722
3819.29712	3794.29712	2.61987	65.16071	9164.42222	0.04195	4693.93978	1.95253	0.30080	0.04416	2.62120
3819.44952	3794.44952	2.63582	46.37631	9435.99894	0.02888	5016.09081	1.88128	0.30345	0.03134	2.64266
3819.60192	3794.60192	2.65061	26.97155	9779.06934	0.02187	5470.63136	1.78773	0.24919	0.02449	2.65415
3819.75432	3794.75432	2.63288	17.74428	10251.23036	0.04095	5970.67390	1.71702	0.18232	0.04324	2.62281
3819.90672	3794.90672	2.59494	16.55195	10495.31844	0.06591	6214.62739	1.68894	0.11954	0.06772	2.58189
3820.05912	3795.05912	2.56598	17.60762	10898.80903	0.08012	6545.36870	1.66521	0.10053	0.08165	2.55861
3820.21152	3795.21152	2.55990	17.23150	11149.84320	0.07887	6749.28149	1.65199	0.08936	0.08039	2.56061
3820.36392	3795.36392	2.57659	16.62426	11252.22401	0.06453	6819.05349	1.65020	0.09025	0.06630	2.58418
3820.51632	3795.51632	2.61070	16.48522	11428.27612	0.04071	6930.68995	1.64933	0.07360	0.04293	2.62318
3820.66872	3795.66872	2.64846	19.91908	12836.45565	0.01816	7985.05669	1.60780	0.04629	0.02080	2.66027
3820.82112	3795.82112	2.67088	19.33783	13780.62770	0.01003	8738.61729	1.57705	0.02541	0.01155	2.67575
3820.97352	3795.97352	2.66779	21.37649	13999.05432	0.01592	8922.91932	1.56881	0.03035	0.01865	2.66394
3821.12592	3796.12592	2.64137	21.69604	13776.80012	0.03614	8767.86362	1.57116	0.04594	0.03850	2.63078
3821.27832	3796.27832	2.61351	23.47838	12888.99748	0.05169	8081.35258	1.59475	0.05524	0.05378	2.60528
3821.43072	3796.43072	2.57340	22.20899	11995.08135	0.08023	7418.29668	1.61684	0.06846	0.08179	2.55844
3821.58312	3796.58312	2.53587	20.14788	11421.78734	0.10042	6972.42360	1.63804	0.08944	0.10164	2.52527
3821.73552	3796.73552	2.50664	18.40152	10817.70921	0.10877	6519.93936	1.65910	0.10649	0.11787	2.49804
3821.88792	3796.88792	2.50341	17.42383	10499.14249	0.10459	6270.46238	1.67440	0.11523	0.11318	2.50596
3822.04032	3797.04032	2.51391	17.81855	10575.72489	0.09816	6317.39518	1.67413	0.11379	0.10617	2.51765
3822.19272	3797.19272	2.52424	15.82413	10700.25579	0.09921	6433.39887	1.66330	0.11767	0.10045	2.52719
3822.34512	3797.34512	2.51128	16.62025	10939.93549	0.10576	6635.04733	1.64868	0.11573	0.11443	2.50381
3822.49752	3797.49752	2.49055	15.63674	10554.50974	0.11666	6354.80153	1.66090	0.11621	0.11991	2.48439
3822.64992	3797.64992	2.48303	18.10034	10697.67431	0.11785	6441.73290	1.66086	0.11523	0.12096	2.48251
3822.80232	3797.80232	2.49849	19.47170	11337.06300	0.10478	6916.02398	1.63931	0.11322	0.11309	2.50606
3822.95472	3797.95472	2.52863	20.06904	11485.06072	0.09204	6999.12018	1.64085	0.09958	0.09335	2.53909
3823.10712	3798.10712	2.53773	18.15467	11175.47474	0.09328	6776.96758	1.64900	0.09425	0.09464	2.53695
3823.25952	3798.25952	2.51574	14.53223	10851.19272	0.10493	6581.01231	1.64878	0.09672	0.11332	2.50573
3823.41192	3798.41192	2.48181	11.45956	10457.42127	0.12473	6294.26043	1.66134	0.10497	0.12759	2.47069
3823.56432	3798.56432	2.46933	11.19645	10068.35831	0.12598	5984.02376	1.68270	0.10251	0.12865	2.46891
3823.71672	3798.71672	2.48479	14.72301	10443.20007	0.11277	6265.02731	1.66700	0.09666	0.11539	2.49234
3823.86912	3798.86912	2.51226	18.92009	10795.10093	0.09616	6475.51272	1.66699	0.09288	0.10381	2.52157
3824.02152	3799.02152	2.53088	25.12545	10585.66408	0.09440	6240.95299	1.69624	0.11484	0.09567	2.53522
3824.17392	3799.17392	2.53787	31.76679	10691.28590	0.09207	6281.27345	1.70196	0.13489	0.09344	2.53899
3824.32632	3799.32632	2.52301	35.29680	10334.59608	0.09891	5988.98351	1.72558	0.16013	0.10747	2.51548
3824.47872	3799.47872	2.49821	38.55136	10155.47412	0.11320	5898.12529	1.72188	0.15383	0.12257	2.49016
3824.63112	3799.63112	2.48486	36.23470	10426.71327	0.11756	6119.41672	1.70386	0.15718	0.12168	2.48246
3824.78352	3799.78352	2.49041	39.56755	10272.98241	0.11116	5998.36150	1.71264	0.14648	0.12020	2.49415
3824.93592	3799.93592	2.50081	40.63392	10234.65220	0.10577	5954.55407	1.71877	0.14549	0.11439	2.50390
3825.08832	3800.08832	2.50390	42.50698	10040.92697	0.10569	5807.63192	1.72885	0.14163	0.11435	2.50395
3825.24072	3800.24072	2.51061	43.97118	9824.16265	0.10031	5610.29119	1.75122	0.14797	0.10849	2.51376
3825.39312	3800.39312	2.52301	44.48232	10137.31264	0.09914	5831.90076	1.73839	0.15131	0.10030	2.52736
3825.54552	3800.54552	2.53668	47.31844	10413.51617	0.09085	6049.77579	1.72126	0.14010	0.09219	2.54098
3825.69792	3800.69792	2.53833	48.57424	10424.22767	0.09319	6077.50647	1.71528	0.13280	0.09447	2.53715
3825.85032	3800.85032	2.54381	51.04517	10525.73824	0.08723	6147.01954	1.71232	0.13047	0.08862	2.54696
3826.00272	3801.00272	2.55491	53.96419	10484.76495	0.08007	6059.12327	1.73034	0.15140	0.08158	2.55868
3826.15512	3801.15512	2.57065	52.97415	10334.12788	0.06932	5901.54512	1.75124	0.15912	0.07102	2.57633
3826.30752	3801.30752	2.59489	47.54735	10815.82841	0.05274	6261.41176	1.72746	0.14735	0.05477	2.60349
3826.45992	3801.45992	2.60220	44.39001	10986.00253	0.05386	6439.44494	1.70609	0.12456	0.05585	2.60170
