#------------------------------------------------------------------------------
#
#   Created by   : las_export
#   Created on   : 2019-11-07 11:28:03
#   Project      : GUDRUN
#   User         : MAAP
#   Interpreters : STAT, AKOLB, *
#
#------------------------------------------------------------------------------
~VERSION INFORMATION
VERS. 2.0 : CWLS Log ASCII Standard - version 2.0
WRAP.  NO : One line per depth step

~WELL INFORMATION
#MNEMONIC   .UNIT                                           VALUE :DESCRIPTION
#------------------------------------------------------------------------------
STRT        .M                                       3933.9015 :START DEPTH
STOP        .M                                       4023.0555 :STOP DEPTH
STEP        .M                                          0.1524 :STEP
NULL        .                                        -999.2500 :NULL VALUE
COMP        .                                                  :COMPANY
WELL        .                                            Well5 :WELL  #15/3-5
FLD         .                                           GUDRUN :FIELD
LOC         .                                          UNKNOWN :LOCATION
CNTY        .                                          UNKNOWN :COUNTY
STAT        .                                          UNKNOWN :STATE
CTRY        .                                           Norway :COUNTRY
SRVC        .                                          UNKNOWN :SERVICE COMPANY
DATE        .                                          UNKNOWN :LOG DATE
UWI         .                                        NO 15/3-5 :UNIQUE WELL ID
XCOORD      .M                                     3105.221162 :SURFACE X  #433105.221162
YCOORD      .M                                    17057.344558 :SURFACE Y  #6517057.344558
LAT         .                                        58.786956 :LATITUDE
LON         .                                         1.842808 :LONGITUDE
ELEV        .M                                         25.0000 :SURFACE ELEV
ELEV_TYPE   .                                               KB :ELEV TYPE

~CURVE INFORMATION
#MNEMONIC   .UNIT          API CODE       : CURVE DESCRIPTION
#------------------------------------------------------------------------------
DEPTH       .M                            : Measured Depth
DEN         .g/cm3         UNKNOWN        : DEN:COMPOSITE:rC:NONE:v1
GR          .API           UNKNOWN        : GR:CPI:rC:NONE:v1
LFP_AI      .kg/m2.s       UNKNOWN        : LFP_AI:GeologLFP:r1:0001:v1
LFP_PHIT    .v/v decimal   UNKNOWN        : LFP_PHIT:GeologLFP:rC:NONE:v1
LFP_SI      .kPa.s/m       UNKNOWN        : LFP_SI:GeologLFP:r1:0001:v1
LFP_VPVS    .unitless      UNKNOWN        : LFP_VPVS:GeologLFP:r1:0001:v1
NPHI        .v/v decimal   UNKNOWN        : NPHI:CPI:rC:NONE:v1
PHIT        .v/v decimal   UNKNOWN        : PHIT:CPI:r2:0001:v1
RHOB        .g/cm3         UNKNOWN        : RHOB:CPI:rC:NONE:v1
~A     DEPTH          DEN           GR       LFP_AI     LFP_PHIT       LFP_SI     LFP_VPVS         NPHI         PHIT         RHOB 
# ...
  4009.49190     2.578100    58.434672  9370.371728     0.068056  4931.029919     1.900327     0.328118     0.069803     2.578132 
  4009.64430     2.594735    58.776850  9313.340391     0.057953  4873.193453     1.911233     0.340954     0.059883     2.594748 
  4009.79670     2.619544    60.413564  9758.849004     0.042865  5180.054246     1.883887     0.364077     0.045071     2.619540 
  4009.94910     2.640113    61.752000  9504.323742     0.030371  4952.156751     1.919263     0.376958     0.032804     2.640104 
  4010.10150     2.642387    60.945292  9643.219634     0.028980  5064.806827     1.903972     0.380418     0.031439     2.642376 
  4010.25390     2.630201    60.237955  9695.810093     0.036377  5123.376322     1.892466     0.375757     0.038700     2.630182 
  4010.40630     2.621073    61.071522  9404.174566     0.041932  4899.115953     1.919580     0.356183     0.044154     2.621095 
  4010.55870     2.618486    61.993063  9519.573897     0.043510  4980.529238     1.911373     0.330632     0.045704     2.618497 
  4010.71110     2.616973    64.237775  9300.389007     0.044427  4791.229577     1.941127     0.316834     0.046603     2.617001 
  4010.86350     2.617559    64.672752  9211.356889     0.044059  4718.231528     1.952267     0.320460     0.046242     2.617621 
  4011.01590     2.628327    62.161846  9285.109131     0.037507  4790.136837     1.938466     0.323128     0.039810     2.628344 
  4011.16830     2.650826    50.132501  9927.523862     0.023838  5389.113197     1.842374     0.322944     0.026390     2.650835 
  4011.32070     2.668713    34.567798 11248.350365     0.012961  6582.453087     1.708903     0.328422     0.015708     2.668714 
  4011.47310     2.675791    23.040736 12283.976707     0.010000  7543.462953     1.628476     0.336035     0.011477     2.675801 
  4011.62550     2.676318    18.931806 13438.983890     0.010000  8516.767367     1.577949     0.338588     0.011154     2.676321 
  4011.77790     2.686977    17.775684 14196.093896     0.010000  9116.163795     1.557211     0.330864     0.010000     2.686947 
  4011.93030     2.711122    16.460135 14161.758668     0.010000  9068.170864     1.561768     0.322239     0.010000     2.711152 
  4012.08270     2.737794    16.531905 14792.302576     0.010000  9552.125191     1.548612     0.322506     0.010000     2.737704 
  4012.23510     2.739964    18.192391 14620.148678     0.010000  9411.678093     1.553427     0.333587     0.010000     2.739978 
  4012.38750     2.728441    17.381535 14152.052610     0.010000  9045.280365     1.564599     0.347998     0.010000     2.728512 
  4012.53990     2.734490    16.644518 14198.132443     0.010000  9077.057352     1.564125     0.352106     0.010000     2.734529 
  4012.69230     2.749768    16.411507 13921.934897     0.010000  8841.871362     1.574527     0.343650     0.010000     2.749698 
  4012.84470     2.748359    21.204462 13692.935537     0.010000  8634.584663     1.585806     0.331693     0.010000     2.748359 
  4012.99710     2.727128    26.736222 12771.515997     0.010000  7838.043702     1.629370     0.323692     0.010001     2.727104 
  4013.14950     2.677557    35.719985 11555.725127     0.010109  6800.540352     1.699194     0.326940     0.010460     2.677550 
  4013.30190     2.600312    45.036476 10377.006528     0.054555  5834.014008     1.778633     0.329886     0.056548     2.600377 
  4013.45430     2.536929    54.235778  9382.499392     0.093093  5006.816051     1.873877     0.334716     0.094383     2.536957 
  4013.60670     2.515023    57.497184  9122.101727     0.106441  4787.132609     1.905528     0.331245     0.107488     2.515003 
  4013.75910     2.516654    59.259810  9080.935945     0.105470  4736.827018     1.917040     0.325119     0.106534     2.516596 
  4013.91150     2.514409    63.796517  9034.281262     0.106824  4673.462212     1.933156     0.318322     0.107863     2.514393 
  4014.06390     2.510659    66.374344  9200.033205     0.109098  4803.448056     1.915253     0.312432     0.110097     2.510707 
  4014.21630     2.514095    68.663775  8995.492529     0.107008  4643.847065     1.937016     0.311821     0.108045     2.514120 
  4014.36870     2.524554    69.608836  8608.840107     0.100647  4339.033000     1.984118     0.312445     0.101800     2.524527 
  4014.52110     2.538454    71.531019  8953.458677     0.092174  4590.168257     1.950604     0.316718     0.093480     2.538453 
  4014.67350     2.565667    68.553633  9033.936124     0.075630  4628.085584     1.952122     0.318092     0.077239     2.565666 
  4014.82590     2.599517    59.707866 10233.648721     0.055054  5566.100756     1.838600     0.319766     0.057037     2.599446 
  4014.97830     2.623081    54.409263 10634.825986     0.040724  5915.318599     1.797849     0.317499     0.042969     2.623013 
  4015.13070     2.629545    54.343758 10367.798703     0.036772  5703.301188     1.817869     0.314512     0.039089     2.629509 
  4015.28310     2.634368    56.387735 10675.791384     0.033841  5913.466369     1.805270     0.318366     0.036211     2.634415 
  4015.43550     2.642159    57.417425  9832.323790     0.029110  5244.200491     1.874876     0.323351     0.031566     2.642107 
  4015.58790     2.645754    60.558602  9627.960147     0.026925  5051.002719     1.906177     0.321547     0.029421     2.645793 
  4015.74030     2.641905    65.953863  9444.820726     0.029224  4873.836790     1.937886     0.309389     0.031677     2.641937 
  4015.89270     2.660899    72.278947  9172.459387     0.017722  4648.628987     1.973099     0.291350     0.020379     2.660848 
  4016.04510     2.685427    74.969600  8904.706778     0.010000  4422.161069     2.013642     0.292284     0.010000     2.685456 
  4016.19750     2.714117    74.858054  9202.691651     0.010000  4624.649661     1.989934     0.298928     0.010000     2.714094 
  4016.34990     2.711073    70.045957  9442.093595     0.010000  4810.497152     1.962889     0.297512     0.010000     2.711085 
  4016.50230     2.703264    64.784193  9882.388436     0.010000  5154.486907     1.917332     0.299002     0.010000     2.703294 
  4016.65470     2.700250    59.486044 10486.910322     0.010000  5672.924453     1.848563     0.321302     0.010000     2.700298 
  4016.80710     2.699200    53.109610 10387.502133     0.010000  5666.420580     1.833178     0.351806     0.010000     2.699199 
  4016.95950     2.698723    47.784210 10847.026535     0.010000  6082.823771     1.783234     0.370627     0.010000     2.698692 
  4017.11190     2.694614    48.761627 10667.809149     0.010000  5935.455033     1.797222     0.379114     0.010000     2.694585 
  4017.26430     2.687005    56.893720  9836.185744     0.010000  5210.323355     1.887847     0.378818     0.010000     2.686987 
  4017.41670     2.680073    66.765873  9478.164266     0.010000  4865.383332     1.948095     0.360278     0.010004     2.680091 
  4017.56910     2.675578    68.253636  9096.911267     0.010001  4577.796781     1.987154     0.336066     0.011600     2.675595 
  4017.72150     2.672968    64.792288  8899.425927     0.010365  4429.271873     2.009218     0.308376     0.013162     2.672992 
  4017.87390     2.668687    59.855548  9008.682817     0.012965  4560.124902     1.975631     0.292206     0.015715     2.668693 
  4018.02630     2.665091    59.523900  9659.112826     0.015155  5066.688902     1.906447     0.309498     0.017865     2.665093 
  4018.17870     2.661473    57.906373  9821.267028     0.017347  5211.521902     1.884587     0.358515     0.020018     2.661503 
  4018.33110     2.662995    53.846883 10215.121521     0.016427  5557.468424     1.838172     0.399813     0.019114     2.663008 
  4018.48350     2.667163    42.399071 11048.147828     0.013893  6331.169671     1.745078     0.386457     0.016626     2.667206 
  4018.63590     2.670545    31.554494 11353.355952     0.011840  6698.686854     1.695014     0.349291     0.014610     2.670498 
  4018.78830     2.669659    24.057446 12562.465265     0.012377  7759.297100     1.619127     0.280590     0.015138     2.669692 
