#------------------------------------------------------------------------------
#
#   Created by   : las_export
#   Created on   : 2019-11-07 11:28:03
#   Project      : GUDRUN
#   User         : MAAP
#   Interpreters : STAT, AKOLB, *
#
#------------------------------------------------------------------------------
~VERSION INFORMATION
VERS. 2.0 : CWLS Log ASCII Standard - version 2.0
WRAP.  NO : One line per depth step

~WELL INFORMATION
#MNEMONIC   .UNIT                                           VALUE :DESCRIPTION
#------------------------------------------------------------------------------
STRT        .M                                       3933.9015 :START DEPTH
STOP        .M                                       4023.0555 :STOP DEPTH
STEP        .M                                          0.1524 :STEP
NULL        .                                        -999.2500 :NULL VALUE
COMP        .                                                  :COMPANY
WELL        .                                            Well5 :WELL  #15/3-5
FLD         .                                           GUDRUN :FIELD
LOC         .                                          UNKNOWN :LOCATION
CNTY        .                                          UNKNOWN :COUNTY
STAT        .                                          UNKNOWN :STATE
CTRY        .                                           Norway :COUNTRY
SRVC        .                                          UNKNOWN :SERVICE COMPANY
DATE        .                                          UNKNOWN :LOG DATE
UWI         .                                        NO 15/3-5 :UNIQUE WELL ID
XCOORD      .M                                     3105.221162 :SURFACE X  #433105.221162
YCOORD      .M                                    17057.344558 :SURFACE Y  #6517057.344558
LAT         .                                        58.786956 :LATITUDE
LON         .                                         1.842808 :LONGITUDE
ELEV        .M                                         25.0000 :SURFACE ELEV
ELEV_TYPE   .                                               KB :ELEV TYPE

~CURVE INFORMATION
#MNEMONIC   .UNIT          API CODE       : CURVE DESCRIPTION
#------------------------------------------------------------------------------
DEPTH       .M                            : Measured Depth
DEN         .g/cm3         UNKNOWN        : DEN:COMPOSITE:rC:NONE:v1
GR          .API           UNKNOWN        : GR:CPI:rC:NONE:v1
LFP_AI      .kg/m2.s       UNKNOWN        : LFP_AI:GeologLFP:r1:0001:v1
LFP_PHIT    .v/v decimal   UNKNOWN        : LFP_PHIT:GeologLFP:rC:NONE:v1
LFP_SI      .kPa.s/m       UNKNOWN        : LFP_SI:GeologLFP:r1:0001:v1
LFP_VPVS    .unitless      UNKNOWN        : LFP_VPVS:GeologLFP:r1:0001:v1
NPHI        .v/v decimal   UNKNOWN        : NPHI:CPI:rC:NONE:v1
PHIT        .v/v decimal   UNKNOWN        : PHIT:CPI:r2:0001:v1
RHOB        .g/cm3         UNKNOWN        : RHOB:CPI:rC:NONE:v1
~A     DEPTH          DEN           GR       LFP_AI     LFP_PHIT       LFP_SI     LFP_VPVS         NPHI         PHIT         RHOB 
# ...
  3990.59430     2.709942    42.441946 12863.857841     0.010000  7819.686367     1.644998     0.218936     0.010000     2.709951 
  3990.74670     2.684487    50.779226 12166.469749     0.010012  7220.418590     1.684979     0.219237     0.010019     2.684463 
  3990.89910     2.665164    58.088522 11698.061595     0.015104  6812.336993     1.717146     0.218054     0.017816     2.665188 
  3991.05150     2.658836    59.960459 11383.558948     0.018971  6558.138931     1.735819     0.216922     0.021613     2.658788 
  3991.20390     2.652882    60.088996 11216.255614     0.022590  6432.473598     1.743717     0.219776     0.025165     2.652885 
  3991.35630     2.645082    59.637033 11041.232362     0.027368  6307.115036     1.750545     0.226013     0.029856     2.645044 
  3991.50870     2.615942    61.218361 10668.802609     0.045031  6030.265581     1.769154     0.236247     0.047197     2.615986 
  3991.66110     2.608818    63.817371 10431.534777     0.049404  5823.847984     1.791146     0.248177     0.051491     2.608810 
  3991.81350     2.613959    65.264412 10284.142705     0.046233  5681.796596     1.810008     0.257787     0.048378     2.614059 
  3991.96590     2.644517    66.331809 10475.499431     0.027712  5777.472386     1.813179     0.262090     0.030194     2.644424 
  3992.11830     2.656836    68.604056 10244.440956     0.020192  5551.409493     1.845413     0.274587     0.022811     2.656783 
  3992.27070     2.648223    70.942750 10309.299209     0.025410  5569.900373     1.850926     0.287258     0.027935     2.648198 
  3992.42310     2.647159    70.005027 10225.363727     0.026105  5493.051205     1.861513     0.296720     0.028616     2.647161 
  3992.57550     2.627128    67.250978 10066.962318     0.038258  5392.012016     1.866947     0.297920     0.040548     2.627152 
  3992.72790     2.602542    66.186059  9799.030718     0.053225  5194.599291     1.886326     0.306732     0.055242     2.602561 
  3992.88030     2.582405    66.724742  9229.558424     0.065464  4762.157781     1.938058     0.328777     0.067258     2.582383 
  3993.03270     2.573541    69.207906  8972.280178     0.070862  4573.294386     1.961829     0.346855     0.072558     2.573503 
  3993.18510     2.574959    68.506460  8871.140062     0.070001  4494.760387     1.973664     0.345685     0.071712     2.575013 
  3993.33750     2.581518    67.735522  9026.450697     0.066004  4607.767965     1.958946     0.328143     0.067789     2.581525 
  3993.48990     2.594636    70.515212  9284.191242     0.058016  4793.252686     1.936960     0.310163     0.059946     2.594646 
  3993.64230     2.618281    72.277554  9535.951045     0.043659  4964.829575     1.920766     0.298783     0.045850     2.618222 
  3993.79470     2.629659    71.083608  9727.469932     0.036696  5101.198588     1.906960     0.284179     0.039015     2.629736 
  3993.94710     2.648149    63.885477  9905.336657     0.025468  5239.598574     1.890516     0.270530     0.027991     2.648139 
  3994.09950     2.668199    59.343896 10201.579291     0.013280  5495.324414     1.856375     0.264597     0.016017     2.668224 
  3994.25190     2.680481    57.938592 10319.659235     0.010000  5589.518710     1.846218     0.266662     0.010000     2.680501 
  3994.40430     2.680941    60.252776 10333.147041     0.010000  5575.298405     1.853420     0.268095     0.010006     2.680887 
  3994.55670     2.674382    62.056019 10285.418115     0.010000  5525.759840     1.861404     0.265765     0.012302     2.674413 
  3994.70910     2.681172    63.923449 10373.659307     0.010000  5568.029573     1.863058     0.254509     0.010000     2.681108 
  3994.86150     2.685500    62.140556 10541.486090     0.010000  5711.457719     1.845694     0.224985     0.010001     2.685484 
  3995.01390     2.677523    63.271215 10600.225063     0.010000  5751.650846     1.843044     0.191470     0.010426     2.677534 
  3995.16630     2.695140    61.707283 10928.124835     0.010000  6004.501782     1.820011     0.172218     0.010000     2.695197 
  3995.31870     2.745052    55.544775 11393.802822     0.010000  6388.134815     1.783676     0.168002     0.010000     2.745042 
  3995.47110     2.818242    47.127658 12148.124627     0.010000  7009.474570     1.733081     0.168774     0.010000     2.818056 
  3995.62350     2.795430    45.010985 12074.717156     0.010000  6997.594394     1.725520     0.181355     0.010000     2.795446 
  3995.77590     2.716176    53.782986 11333.290779     0.010049  6385.951436     1.774640     0.222656     0.010055     2.716153 
  3995.92830     2.640544    67.273183 10174.224742     0.030041  5432.829720     1.872645     0.271416     0.032481     2.640657 
  3996.08070     2.618282    75.359883  9418.726331     0.043620  4874.994903     1.932032     0.317735     0.045812     2.618330 
  3996.23310     2.633667    74.588239  9343.556179     0.034289  4803.820017     1.945044     0.348462     0.036651     2.633621 
  3996.38550     2.644654    69.518473  9208.768400     0.027615  4691.020329     1.963083     0.357497     0.030098     2.644581 
  3996.53790     2.634705    64.372002  9192.865791     0.033660  4699.338393     1.956207     0.358046     0.036033     2.634656 
  3996.69030     2.611883    63.621145  9057.282034     0.047523  4623.024936     1.959143     0.349460     0.049643     2.611876 
  3996.84270     2.599300    64.301979  8879.604199     0.055179  4491.656384     1.976900     0.329192     0.057159     2.599306 
  3996.99510     2.602450    66.603039  8935.530878     0.053278  4519.576934     1.977054     0.300240     0.055294     2.602408 
  3997.14750     2.606604    65.958867  9122.512156     0.050748  4659.138926     1.958043     0.260876     0.052810     2.606601 
  3997.29990     2.607264    61.346344  9613.386856     0.050340  5076.768579     1.893700     0.233685     0.052409     2.607307 
  3997.45230     2.610813    52.600428 10261.608532     0.048180  5664.429175     1.811712     0.222786     0.050289     2.610815 
  3997.60470     2.618568    44.818466 11111.804602     0.043460  6405.559601     1.734816     0.226983     0.045654     2.618622 
  3997.75710     2.630263    44.610965 11803.954116     0.036346  6941.449405     1.700519     0.223850     0.038671     2.630225 
  3997.90950     2.643331    50.437111 12070.383789     0.028401  7064.850563     1.708475     0.208790     0.030871     2.643317 
  3998.06190     2.651795    54.770802 11755.933367     0.023237  6759.868313     1.739067     0.189061     0.025801     2.651823 
  3998.21430     2.663754    56.088540 11376.280386     0.015974  6439.274492     1.766686     0.172560     0.018663     2.663728 
  3998.36670     2.678149    60.449070 11082.382061     0.010000  6149.988598     1.801980     0.165457     0.010084     2.678138 
  3998.51910     2.697495    67.529001 10916.788946     0.010000  5950.463042     1.834562     0.167441     0.010000     2.697533 
  3998.67150     2.714286    69.086162 10622.873019     0.010000  5710.651010     1.860176     0.174295     0.010000     2.714314 
  3998.82390     2.721423    68.261701 10250.958218     0.010000  5419.834071     1.891349     0.185934     0.010000     2.721398 
  3998.97630     2.720146    67.814698 10011.500052     0.010000  5237.776698     1.911359     0.197692     0.010000     2.720163 
  3999.12870     2.700865    71.384070  9681.199447     0.010000  5002.348089     1.935284     0.204135     0.010005     2.700849 
  3999.28110     2.674469    71.466285  9655.397429     0.010025  5006.128978     1.928764     0.210003     0.012260     2.674466 
  3999.43350     2.656896    70.600398  9748.457455     0.020142  5092.874052     1.914125     0.217632     0.022761     2.656881 
  3999.58590     2.647009    69.536368  9602.287294     0.026163  4989.953133     1.924371     0.229820     0.028674     2.646982 
  3999.73830     2.637446    66.303189  9693.958773     0.031990  5068.513792     1.912619     0.246588     0.034394     2.637469 
  3999.89070     2.621246    67.507356  9549.726528     0.041845  4972.434882     1.920518     0.271323     0.044069     2.621257 
